$GPRMC,091955.000,A,4341.3315,N,00104.3606,W,3.51,162.62,120809,,,A*79
$GPGGA,091956.000,4341.3304,N,00104.3601,W,1,10,0.8,30.3,M,50.6,M,,0000*71
$GPGSA,A,3,15,28,17,10,27,08,09,21,24,18,,,1.4,0.8,1.2*3D
$GPRMC,091956.000,A,4341.3304,N,00104.3601,W,4.07,162.15,120809,,,A*79
$GPGGA,091957.000,4341.3293,N,00104.3596,W,1,10,0.8,30.3,M,50.6,M,,0000*72
$GPGSA,A,3,15,28,17,10,27,08,09,21,24,18,,,1.4,0.8,1.2*3D
$GPRMC,091957.000,A,4341.3293,N,00104.3596,W,4.53,161.50,120809,,,A*79
$GPGGA,091958.000,4341.3281,N,00104.3591,W,1,10,0.8,30.3,M,50.6,M,,0000*79
$GPGSA,A,3,15,28,17,10,27,08,09,21,24,18,,,1.4,0.8,1.2*3D
$GPRMC,091958.000,A,4341.3281,N,00104.3591,W,4.74,162.33,120809,,,A*71
$GPGGA,091959.000,4341.3268,N,00104.3586,W,1,09,1.0,30.3,M,50.6,M,,0000*78
$GPGSA,A,3,15,28,10,27,08,09,21,24,18,,,,1.7,1.0,1.3*30
$GPGSV,3,1,10,15,74,322,47,27,47,266,43,28,47,064,46,10,31,181,44*7C
$GPGSV,3,2,10,09,27,258,43,08,20,059,44,18,17,316,41,17,09,114,26*7A
$GPGSV,3,3,10,21,07,282,36,24,05,245,41*74
$GPRMC,091959.000,A,4341.3268,N,00104.3586,W,4.89,165.95,120809,,,A*78
$GPGGA,092000.000,4341.3255,N,00104.3582,W,1,09,1.0,30.3,M,50.6,M,,0000*74
$GPGSA,A,3,15,28,10,27,08,09,21,24,18,,,,1.7,1.0,1.3*30
$GPRMC,092000.000,A,4341.3255,N,00104.3582,W,4.95,166.60,120809,,,A*70
$GPGGA,092001.000,4341.3241,N,00104.3577,W,1,09,1.0,30.2,M,50.6,M,,0000*7B
$GPGSA,A,3,15,28,10,27,08,09,21,24,18,,,,1.7,1.0,1.3*30
$GPRMC,092001.000,A,4341.3241,N,00104.3577,W,5.01,165.04,120809,,,A*73
$GPGGA,092002.000,4341.3228,N,00104.3573,W,1,09,1.0,30.2,M,50.6,M,,0000*73
$GPGSA,A,3,15,28,10,27,08,09,21,24,18,,,,1.7,1.0,1.3*30
$GPRMC,092002.000,A,4341.3228,N,00104.3573,W,4.57,165.13,120809,,,A*7F
$GPGGA,092003.000,4341.3217,N,00104.3569,W,1,09,1.0,30.1,M,50.6,M,,0000*76
$GPGSA,A,3,15,28,10,27,08,09,21,24,18,,,,1.7,1.0,1.3*30
$GPRMC,092003.000,A,4341.3217,N,00104.3569,W,3.71,166.34,120809,,,A*7C
$GPGGA,092004.000,4341.3207,N,00104.3566,W,1,09,1.0,30.1,M,50.6,M,,0000*7F
$GPGSA,A,3,15,28,10,27,08,09,21,24,18,,,,1.7,1.0,1.3*30
$GPGSV,3,1,10,15,74,322,47,27,47,266,43,28,47,064,46,10,31,181,44*7C
$GPGSV,3,2,10,09,27,258,42,08,20,059,44,18,17,316,41,17,09,114,*7F
$GPGSV,3,3,10,21,07,282,45,24,05,245,41*70
$GPRMC,092004.000,A,4341.3207,N,00104.3566,W,3.88,167.46,120809,,,A*77
$GPGGA,092005.000,4341.3197,N,00104.3563,W,1,09,1.0,30.1,M,50.6,M,,0000*71
$GPGSA,A,3,15,28,10,27,08,09,21,24,18,,,,1.7,1.0,1.3*30
$GPRMC,092005.000,A,4341.3197,N,00104.3563,W,3.73,167.88,120809,,,A*7F
$GPGGA,092006.000,4341.3186,N,00104.3560,W,1,09,1.0,30.0,M,50.6,M,,0000*70
$GPGSA,A,3,15,28,10,27,08,09,21,24,18,,,,1.7,1.0,1.3*30
$GPRMC,092006.000,A,4341.3186,N,00104.3560,W,3.96,169.92,120809,,,A*71
$GPGGA,092007.000,4341.3176,N,00104.3557,W,1,09,1.0,30.0,M,50.6,M,,0000*7A
$GPGSA,A,3,15,28,10,27,08,09,21,24,18,,,,1.7,1.0,1.3*30
$GPRMC,092007.000,A,4341.3176,N,00104.3557,W,3.49,166.32,120809,,,A*7C
$GPGGA,092008.000,4341.3168,N,00104.3555,W,1,09,1.0,29.9,M,50.6,M,,0000*79
$GPGSA,A,3,15,28,10,27,08,09,21,24,18,,,,1.7,1.0,1.3*30
$GPRMC,092008.000,A,4341.3168,N,00104.3555,W,2.45,164.97,120809,,,A*7E
$GPGGA,092009.000,4341.3161,N,00104.3552,W,1,09,1.0,29.9,M,50.6,M,,0000*76
$GPGSA,A,3,15,28,10,27,08,09,21,24,18,,,,1.7,1.0,1.3*30
$GPGSV,3,1,10,15,74,322,47,27,47,266,43,28,47,064,46,10,31,181,44*7C
$GPGSV,3,2,10,09,27,258,43,08,20,059,43,18,17,316,42,17,09,114,*7A
$GPGSV,3,3,10,21,07,282,45,24,05,245,41*70
$GPRMC,092009.000,A,4341.3161,N,00104.3552,W,2.55,162.25,120809,,,A*7F
$GPGGA,092010.000,4341.3154,N,00104.3549,W,1,09,1.0,29.8,M,50.6,M,,0000*73
$GPGSA,A,3,15,28,10,27,08,09,21,24,18,,,,1.7,1.0,1.3*30
$GPRMC,092010.000,A,4341.3154,N,00104.3549,W,2.99,158.99,120809,,,A*75
$GPGGA,092011.000,4341.3146,N,00104.3544,W,1,09,1.0,29.8,M,50.6,M,,0000*7C
$GPGSA,A,3,15,28,10,27,08,09,21,24,18,,,,1.7,1.0,1.3*30
$GPRMC,092011.000,A,4341.3146,N,00104.3544,W,3.76,155.63,120809,,,A*72
$GPGGA,092012.000,4341.3136,N,00104.3537,W,1,10,0.8,29.8,M,50.6,M,,0000*7D
$GPGSA,A,3,15,28,17,10,27,08,09,21,24,18,,,1.4,0.8,1.2*3D
$GPRMC,092012.000,A,4341.3136,N,00104.3537,W,4.39,151.01,120809,,,A*7E
$GPGGA,092013.000,4341.3125,N,00104.3528,W,1,10,0.8,29.7,M,50.6,M,,0000*7F
$GPGSA,A,3,15,28,17,10,27,08,09,21,24,18,,,1.4,0.8,1.2*3D
$GPRMC,092013.000,A,4341.3125,N,00104.3528,W,4.83,146.33,120809,,,A*75
$GPGGA,092014.000,4341.3114,N,00104.3517,W,1,10,0.8,29.6,M,50.6,M,,0000*77
$GPGSA,A,3,15,28,17,10,27,08,09,21,24,18,,,1.4,0.8,1.2*3D
$GPGSV,3,1,10,15,74,322,47,27,47,266,42,28,47,064,46,10,31,181,45*7C
$GPGSV,3,2,10,09,27,258,43,08,20,059,40,18,17,316,43,17,09,114,29*73
$GPGSV,3,3,10,21,07,282,44,24,05,245,42*72
$GPRMC,092014.000,A,4341.3114,N,00104.3517,W,4.70,138.62,120809,,,A*7D
$GPGGA,092015.000,4341.3104,N,00104.3506,W,1,09,1.0,29.6,M,50.6,M,,0000*76
$GPGSA,A,3,15,28,10,27,08,09,21,24,18,,,,1.7,1.0,1.3*30
$GPRMC,092015.000,A,4341.3104,N,00104.3506,W,4.57,142.31,120809,,,A*73
$GPGGA,092016.000,4341.3093,N,00104.3495,W,1,09,1.0,29.5,M,50.6,M,,0000*72
$GPGSA,A,3,15,28,10,27,08,09,21,24,18,,,,1.7,1.0,1.3*30
$GPRMC,092016.000,A,4341.3093,N,00104.3495,W,4.99,147.58,120809,,,A*7C
$GPGGA,092017.000,4341.3082,N,00104.3484,W,1,09,1.0,29.4,M,50.6,M,,0000*72
$GPGSA,A,3,15,28,10,27,08,09,21,24,18,,,,1.6,1.0,1.3*31
$GPRMC,092017.000,A,4341.3082,N,00104.3484,W,5.31,141.45,120809,,,A*74
$GPGGA,092018.000,4341.3071,N,00104.3469,W,1,09,1.0,29.4,M,50.6,M,,0000*72
$GPGSA,A,3,15,28,10,27,08,09,21,24,18,,,,1.6,1.0,1.3*31
$GPRMC,092018.000,A,4341.3071,N,00104.3469,W,5.51,129.28,120809,,,A*77
$GPGGA,092019.000,4341.3063,N,00104.3452,W,1,10,0.8,29.3,M,50.6,M,,0000*7E
$GPGSA,A,3,15,28,17,10,27,08,09,21,24,18,,,1.4,0.8,1.2*3D
$GPGSV,3,1,10,15,74,322,47,27,47,266,43,28,47,063,39,10,31,181,37*77
$GPGSV,3,2,10,09,27,258,45,08,20,059,33,18,18,316,18,17,09,114,32*7A
$GPGSV,3,3,10,21,07,282,43,24,05,245,43*74
$GPRMC,092019.000,A,4341.3063,N,00104.3452,W,5.27,115.67,120809,,,A*78
$GPGGA,092020.000,4341.3058,N,00104.3434,W,1,10,0.8,29.3,M,50.6,M,,0000*7C
$GPGSA,A,3,15,28,17,10,27,08,09,21,24,18,,,1.4,0.8,1.2*3D
$GPRMC,092020.000,A,4341.3058,N,00104.3434,W,5.04,103.90,120809,,,A*74
$GPGGA,092021.000,4341.3056,N,00104.3417,W,1,10,0.8,29.3,M,50.6,M,,0000*72
$GPGSA,A,3,15,28,17,10,27,08,09,21,24,18,,,1.4,0.8,1.2*3D
$GPRMC,092021.000,A,4341.3056,N,00104.3417,W,4.03,92.12,120809,,,A*4F
$GPGGA,092022.000,4341.3057,N,00104.3403,W,1,10,0.8,29.4,M,50.6,M,,0000*72
$GPGSA,A,3,15,28,17,10,27,08,09,21,24,18,,,1.4,0.8,1.2*3D
$GPRMC,092022.000,A,4341.3057,N,00104.3403,W,3.61,83.04,120809,,,A*4C
$GPGGA,092023.000,4341.3058,N,00104.3391,W,1,10,0.8,29.5,M,50.6,M,,0000*71
$GPGSA,A,3,15,28,17,10,27,08,09,21,24,18,,,1.4,0.8,1.2*3D
$GPRMC,092023.000,A,4341.3058,N,00104.3391,W,2.93,79.01,120809,,,A*42
$GPGGA,092024.000,4341.3060,N,00104.3380,W,1,10,0.8,29.5,M,50.6,M,,0000*7D
$GPGSA,A,3,15,28,17,10,27,08,09,21,24,18,,,1.4,0.8,1.2*3D
$GPGSV,3,1,10,15,74,322,46,27,47,266,42,28,47,063,39,10,31,181,42*75
$GPGSV,3,2,10,09,27,258,44,08,20,059,33,18,18,316,32,17,09,114,42*74
$GPGSV,3,3,10,21,07,282,34,24,05,245,38*78
$GPRMC,092024.000,A,4341.3060,N,00104.3380,W,2.67,77.69,120809,,,A*45
$GPGGA,092025.000,4341.3062,N,00104.3369,W,1,10,0.8,29.6,M,50.6,M,,0000*7A
$GPGSA,A,3,15,28,17,10,27,08,09,21,24,18,,,1.4,0.8,1.2*3D
$GPRMC,092025.000,A,4341.3062,N,00104.3369,W,3.23,76.77,120809,,,A*4E
$GPGGA,092026.000,4341.3064,N,00104.3356,W,1,10,0.8,29.7,M,50.6,M,,0000*72
$GPGSA,A,3,15,28,17,10,27,08,09,21,24,18,,,1.4,0.8,1.2*3D
$GPRMC,092026.000,A,4341.3064,N,00104.3356,W,3.96,76.17,120809,,,A*4F
$GPGGA,092027.000,4341.3068,N,00104.3339,W,1,10,0.8,29.8,M,50.6,M,,0000*79
$GPGSA,A,3,15,28,17,10,27,08,09,21,24,18,,,1.4,0.8,1.2*3D
$GPRMC,092027.000,A,4341.3068,N,00104.3339,W,5.53,76.50,120809,,,A*47
$GPGGA,092028.000,4341.3072,N,00104.3312,W,1,10,0.8,29.9,M,50.6,M,,0000*75
$GPGSA,A,3,15,28,17,10,27,08,09,21,24,18,,,1.4,0.8,1.2*3D
$GPRMC,092028.000,A,4341.3072,N,00104.3312,W,8.61,78.70,120809,,,A*4A
$GPGGA,092029.000,4341.3077,N,00104.3272,W,1,10,0.8,29.9,M,50.6,M,,0000*76
$GPGSA,A,3,15,28,17,10,27,08,09,21,24,18,,,1.4,0.8,1.2*3D
$GPGSV,3,1,10,15,74,322,46,27,47,266,42,28,47,063,40,10,31,181,44*7D
$GPGSV,3,2,10,09,27,258,43,08,20,059,33,18,18,316,29,17,09,114,44*7F
$GPGSV,3,3,10,21,07,282,30,24,05,245,39*7D
$GPRMC,092029.000,A,4341.3077,N,00104.3272,W,12.55,80.27,120809,,,A*70
$GPGGA,092030.000,4341.3086,N,00104.3217,W,1,10,0.8,30.0,M,50.6,M,,0000*72
$GPGSA,A,3,15,28,17,10,27,08,09,21,24,18,,,1.4,0.8,1.2*3D
$GPRMC,092030.000,A,4341.3086,N,00104.3217,W,16.60,77.17,120809,,,A*7C
$GPGGA,092031.000,4341.3099,N,00104.3147,W,1,10,0.8,30.0,M,50.6,M,,0000*7B
$GPGSA,A,3,15,28,17,10,27,08,09,21,24,18,,,1.4,0.8,1.2*3D
$GPRMC,092031.000,A,4341.3099,N,00104.3147,W,20.62,74.95,120809,,,A*7B
$GPGGA,092032.000,4341.3115,N,00104.3063,W,1,10,0.8,30.1,M,50.6,M,,0000*7B
$GPGSA,A,3,15,28,17,10,27,08,09,21,24,18,,,1.4,0.8,1.2*3D
$GPRMC,092032.000,A,4341.3115,N,00104.3063,W,24.55,75.62,120809,,,A*73
$GPGGA,092033.000,4341.3134,N,00104.2963,W,1,09,1.0,30.1,M,50.6,M,,0000*70
$GPGSA,A,3,15,28,17,10,27,09,21,24,18,,,,1.5,1.0,1.2*3D
$GPRMC,092033.000,A,4341.3134,N,00104.2963,W,28.36,75.64,120809,,,A*76
$GPGGA,092034.000,4341.3158,N,00104.2848,W,1,09,1.0,30.1,M,50.6,M,,0000*75
$GPGSA,A,3,15,28,17,10,27,09,21,24,18,,,,1.5,1.0,1.2*3D
$GPGSV,3,1,10,15,74,322,36,27,47,266,36,28,47,063,39,10,31,181,39*7D
$GPGSV,3,2,10,09,27,258,36,08,20,059,,18,18,316,25,17,09,114,41*74
$GPGSV,3,3,10,21,07,282,29,24,05,245,32*7E
$GPRMC,092034.000,A,4341.3158,N,00104.2848,W,32.68,73.92,120809,,,A*7C
$GPGGA,092035.000,4341.3185,N,00104.2717,W,1,10,0.8,30.1,M,50.6,M,,0000*70
$GPGSA,A,3,15,28,17,10,27,08,09,21,24,18,,,1.4,0.8,1.2*3D
$GPRMC,092035.000,A,4341.3185,N,00104.2717,W,36.62,74.40,120809,,,A*7E
$GPGGA,092036.000,4341.3216,N,00104.2572,W,1,10,0.8,30.1,M,50.6,M,,0000*7B
$GPGSA,A,3,15,28,17,10,27,08,09,21,24,18,,,1.4,0.8,1.2*3D
$GPRMC,092036.000,A,4341.3216,N,00104.2572,W,40.53,74.21,120809,,,A*71
$GPGGA,092037.000,4341.3250,N,00104.2411,W,1,10,0.8,30.0,M,50.6,M,,0000*7D
$GPGSA,A,3,15,28,17,10,27,08,09,21,24,18,,,1.4,0.8,1.2*3D
$GPRMC,092037.000,A,4341.3250,N,00104.2411,W,44.29,74.42,120809,,,A*7A
$GPGGA,092038.000,4341.3286,N,00104.2236,W,1,10,0.8,29.9,M,50.6,M,,0000*7B
$GPGSA,A,3,15,28,17,10,27,08,09,21,24,18,,,1.4,0.8,1.2*3D
$GPRMC,092038.000,A,4341.3286,N,00104.2236,W,48.05,74.42,120809,,,A*7F
$GPGGA,092039.000,4341.3326,N,00104.2049,W,1,10,0.8,29.8,M,50.6,M,,0000*7A
$GPGSA,A,3,15,28,17,10,27,08,09,21,24,18,,,1.4,0.8,1.2*3D
$GPGSV,3,1,10,15,74,322,35,27,47,266,36,28,47,063,38,10,31,181,40*71
$GPGSV,3,2,10,09,27,258,37,08,20,059,25,18,18,316,23,17,09,114,40*75
$GPGSV,3,3,10,21,07,282,29,24,05,245,34*78
$GPRMC,092039.000,A,4341.3326,N,00104.2049,W,51.53,74.20,120809,,,A*70
$GPGGA,092040.000,4341.3367,N,00104.1849,W,1,10,0.8,29.6,M,50.6,M,,0000*74
$GPGSA,A,3,15,28,17,10,27,08,09,21,24,18,,,1.4,0.8,1.2*3D
$GPRMC,092040.000,A,4341.3367,N,00104.1849,W,54.85,74.52,120809,,,A*7B
$GPGGA,092041.000,4341.3411,N,00104.1636,W,1,10,0.8,29.6,M,50.6,M,,0000*75
$GPGSA,A,3,15,28,17,10,27,08,09,21,24,18,,,1.4,0.8,1.2*3D
$GPRMC,092041.000,A,4341.3411,N,00104.1636,W,58.08,74.36,120809,,,A*71
$GPGGA,092042.000,4341.3458,N,00104.1413,W,1,09,0.9,29.7,M,50.6,M,,0000*76
$GPGSA,A,3,15,28,17,10,27,08,09,24,18,,,,1.5,0.9,1.3*3F
$GPRMC,092042.000,A,4341.3458,N,00104.1413,W,61.09,74.00,120809,,,A*74
$GPGGA,092043.000,4341.3507,N,00104.1182,W,1,09,0.9,30.1,M,50.6,M,,0000*7F
$GPGSA,A,3,15,28,17,10,27,08,09,24,18,,,,1.5,0.9,1.3*3F
$GPRMC,092043.000,A,4341.3507,N,00104.1182,W,63.66,73.47,120809,,,A*7C
$GPGGA,092044.000,4341.3557,N,00104.0942,W,1,10,0.8,31.1,M,50.6,M,,0000*70
$GPGSA,A,3,15,28,17,10,27,08,09,21,24,18,,,1.4,0.8,1.2*3D
$GPGSV,3,1,10,15,74,322,35,27,47,266,29,28,47,063,29,10,31,181,39*71
$GPGSV,3,2,10,09,27,258,31,08,20,059,24,18,18,316,32,17,09,114,40*72
$GPGSV,3,3,10,21,07,282,29,24,05,245,34*78
$GPRMC,092044.000,A,4341.3557,N,00104.0942,W,65.76,74.09,120809,,,A*71
$GPGGA,092045.000,4341.3606,N,00104.0696,W,1,10,0.8,31.9,M,50.6,M,,0000*78
$GPGSA,A,3,15,28,17,10,27,08,09,21,24,18,,,1.4,0.8,1.2*3D
$GPRMC,092045.000,A,4341.3606,N,00104.0696,W,67.16,74.85,120809,,,A*71
$GPGGA,092046.000,4341.3654,N,00104.0445,W,1,10,0.8,33.1,M,50.6,M,,0000*7A
$GPGSA,A,3,15,28,17,10,27,08,09,21,24,18,,,1.4,0.8,1.2*3D
$GPRMC,092046.000,A,4341.3654,N,00104.0445,W,67.70,75.18,120809,,,A*7C
$GPGGA,092047.000,4341.3703,N,00104.0191,W,1,10,0.8,34.8,M,50.6,M,,0000*7A
$GPGSA,A,3,15,28,17,10,27,08,09,21,24,18,,,1.4,0.8,1.2*3D
$GPRMC,092047.000,A,4341.3703,N,00104.0191,W,68.31,75.13,120809,,,A*73
$GPGGA,092048.000,4341.3753,N,00103.9934,W,1,10,0.8,36.8,M,50.6,M,,0000*7B
$GPGSA,A,3,15,28,17,10,27,08,09,21,24,18,,,1.4,0.8,1.2*3D
$GPRMC,092048.000,A,4341.3753,N,00103.9934,W,69.09,75.07,120809,,,A*7F
$GPGGA,092049.000,4341.3803,N,00103.9675,W,1,10,0.8,39.1,M,50.6,M,,0000*7C
$GPGSA,A,3,15,28,17,10,27,08,09,21,24,18,,,1.4,0.8,1.2*3D
$GPGSV,3,1,10,15,75,323,36,27,47,266,33,28,46,063,30,10,31,181,39*70
$GPGSV,3,2,10,09,27,258,31,08,20,059,24,18,18,316,33,17,09,114,40*73
$GPGSV,3,3,10,21,07,282,30,24,05,245,33*77
$GPRMC,092049.000,A,4341.3803,N,00103.9675,W,69.72,75.07,120809,,,A*72
$GPGGA,092050.000,4341.3855,N,00103.9410,W,1,10,0.8,41.9,M,50.6,M,,0000*71
$GPGSA,A,3,15,28,17,10,27,08,09,21,24,18,,,1.4,0.8,1.2*3D
$GPRMC,092050.000,A,4341.3855,N,00103.9410,W,70.55,75.68,120809,,,A*7C
$GPGGA,092051.000,4341.3906,N,00103.9141,W,1,10,0.8,45.0,M,50.6,M,,0000*7B
$GPGSA,A,3,15,28,17,10,27,08,09,21,24,18,,,1.4,0.8,1.2*3D
$GPRMC,092051.000,A,4341.3906,N,00103.9141,W,71.27,75.84,120809,,,A*7D
$GPGGA,092052.000,4341.3959,N,00103.8869,W,1,10,0.8,47.4,M,50.6,M,,0000*76
$GPGSA,A,3,15,28,17,10,27,08,09,21,24,18,,,1.4,0.8,1.2*3D
$GPRMC,092052.000,A,4341.3959,N,00103.8869,W,72.67,75.45,120809,,,A*7C
$GPGGA,092053.000,4341.4013,N,00103.8595,W,1,10,0.8,50.0,M,50.6,M,,0000*7B
$GPGSA,A,3,15,28,17,10,27,08,09,21,24,18,,,1.4,0.8,1.2*3D
$GPRMC,092053.000,A,4341.4013,N,00103.8595,W,73.08,75.31,120809,,,A*78
$GPGGA,092054.000,4341.4065,N,00103.8321,W,1,10,0.8,53.6,M,50.6,M,,0000*71
$GPGSA,A,3,15,28,17,10,27,08,09,21,24,18,,,1.4,0.8,1.2*3D
$GPGSV,3,1,10,15,75,323,38,27,47,266,39,28,46,063,36,10,31,181,41*7D
$GPGSV,3,2,10,09,27,258,32,08,20,059,25,18,18,316,35,17,09,114,40*77
$GPGSV,3,3,10,21,07,282,31,24,05,245,33*76
$GPRMC,092054.000,A,4341.4065,N,00103.8321,W,72.20,75.50,120809,,,A*7B
$GPGGA,092055.000,4341.4117,N,00103.8051,W,1,10,0.8,57.7,M,50.6,M,,0000*75
$GPGSA,A,3,15,28,17,10,27,08,09,21,24,18,,,1.4,0.8,1.2*3D
$GPRMC,092055.000,A,4341.4117,N,00103.8051,W,71.48,75.21,120809,,,A*71
$GPGGA,092056.000,4341.4170,N,00103.7781,W,1,10,0.8,62.2,M,50.6,M,,0000*71
$GPGSA,A,3,15,28,17,10,27,08,09,21,24,18,,,1.4,0.8,1.2*3D
$GPRMC,092056.000,A,4341.4170,N,00103.7781,W,71.89,74.89,120809,,,A*78
$GPGGA,092057.000,4341.4224,N,00103.7511,W,1,10,0.8,67.1,M,50.6,M,,0000*7F
$GPGSA,A,3,15,28,17,10,27,08,09,21,24,18,,,1.4,0.8,1.2*3D
$GPRMC,092057.000,A,4341.4224,N,00103.7511,W,71.83,74.51,120809,,,A*7F
$GPGGA,092058.000,4341.4277,N,00103.7242,W,1,10,0.8,72.2,M,50.6,M,,0000*70
$GPGSA,A,3,15,28,17,10,27,08,09,21,24,18,,,1.4,0.8,1.2*3D
$GPRMC,092058.000,A,4341.4277,N,00103.7242,W,71.19,75.15,120809,,,A*75
$GPGGA,092059.000,4341.4327,N,00103.6974,W,1,10,0.8,77.9,M,50.6,M,,0000*74
$GPGSA,A,3,15,28,17,10,27,08,09,21,24,18,,,1.4,0.8,1.2*3D
$GPGSV,3,1,10,15,75,323,39,27,47,266,38,28,46,063,36,10,31,181,41*7D
$GPGSV,3,2,10,09,27,258,36,08,20,059,25,18,18,316,38,17,09,114,41*7F
$GPGSV,3,3,10,21,07,282,31,24,05,245,33*76
$GPRMC,092059.000,A,4341.4327,N,00103.6974,W,70.69,75.90,120809,,,A*74
$GPGGA,092100.000,4341.4376,N,00103.6708,W,1,10,0.8,83.9,M,50.6,M,,0000*73
$GPGSA,A,3,15,28,17,10,27,08,09,21,24,18,,,1.4,0.8,1.2*3D
$GPRMC,092100.000,A,4341.4376,N,00103.6708,W,69.97,75.64,120809,,,A*7A
$GPGGA,092101.000,4341.4424,N,00103.6445,W,1,10,0.8,90.1,M,50.6,M,,0000*72
$GPGSA,A,3,15,28,17,10,27,08,09,21,24,18,,,1.4,0.8,1.2*3D
$GPRMC,092101.000,A,4341.4424,N,00103.6445,W,69.23,75.83,120809,,,A*77
$GPGGA,092102.000,4341.4471,N,00103.6185,W,1,10,0.8,96.5,M,50.6,M,,0000*7A
$GPGSA,A,3,15,28,17,10,27,08,09,21,24,18,,,1.4,0.8,1.2*3D
$GPRMC,092102.000,A,4341.4471,N,00103.6185,W,69.11,75.77,120809,,,A*77
$GPGGA,092103.000,4341.4518,N,00103.5926,W,1,10,0.8,102.5,M,50.6,M,,0000*4B
$GPGSA,A,3,15,28,17,10,27,08,09,21,24,18,,,1.4,0.8,1.2*3D
$GPRMC,092103.000,A,4341.4518,N,00103.5926,W,68.87,76.06,120809,,,A*71
$GPGGA,092104.000,4341.4564,N,00103.5669,W,1,10,0.8,108.1,M,50.6,M,,0000*4D
$GPGSA,A,3,15,28,17,10,27,08,09,21,24,18,,,1.4,0.8,1.2*3D
$GPGSV,3,1,10,15,75,323,39,27,47,266,34,28,46,063,36,10,31,181,41*71
$GPGSV,3,2,10,09,27,258,38,08,20,059,25,18,18,316,36,17,09,114,41*7F
$GPGSV,3,3,10,21,07,282,29,24,05,245,32*7E
$GPRMC,092104.000,A,4341.4564,N,00103.5669,W,68.84,76.64,120809,,,A*7E
$GPGGA,092105.000,4341.4607,N,00103.5411,W,1,09,1.0,113.4,M,50.6,M,,0000*49
$GPGSA,A,3,15,28,17,10,27,09,21,24,18,,,,1.5,1.0,1.2*3D
$GPRMC,092105.000,A,4341.4607,N,00103.5411,W,68.92,77.39,120809,,,A*7A
$GPGGA,092106.000,4341.4647,N,00103.5151,W,1,09,1.0,118.7,M,50.6,M,,0000*47
$GPGSA,A,3,15,28,17,10,27,09,21,24,18,,,,1.5,1.0,1.2*3D
$GPRMC,092106.000,A,4341.4647,N,00103.5151,W,69.13,78.47,120809,,,A*72
$GPGGA,092107.000,4341.4684,N,00103.4889,W,1,09,1.0,123.5,M,50.6,M,,0000*4E
$GPGSA,A,3,15,28,17,10,27,09,21,24,18,,,,1.5,1.0,1.2*3D
$GPRMC,092107.000,A,4341.4684,N,00103.4889,W,70.37,79.13,120809,,,A*7F
$GPGGA,092108.000,4341.4720,N,00103.4621,W,1,10,0.8,128.1,M,50.6,M,,0000*4C
$GPGSA,A,3,15,28,17,10,27,08,09,21,24,18,,,1.4,0.8,1.2*3D
$GPRMC,092108.000,A,4341.4720,N,00103.4621,W,71.53,79.90,120809,,,A*7B
$GPGGA,092109.000,4341.4753,N,00103.4348,W,1,10,0.8,132.5,M,50.6,M,,0000*4C
$GPGSA,A,3,15,28,17,10,27,08,09,21,24,18,,,1.4,0.8,1.2*3D
$GPGSV,3,1,10,15,75,323,39,27,47,266,36,28,46,063,33,10,31,181,41*76
$GPGSV,3,2,10,09,27,258,37,08,20,059,24,18,18,316,30,17,09,114,41*77
$GPGSV,3,3,10,21,07,282,21,24,05,245,33*77
$GPRMC,092109.000,A,4341.4753,N,00103.4348,W,72.98,81.08,120809,,,A*76
$GPGGA,092110.000,4341.4784,N,00103.4069,W,1,09,1.0,136.7,M,50.6,M,,0000*49
$GPGSA,A,3,15,28,17,10,27,08,09,21,24,,,,1.6,1.0,1.2*3F
$GPRMC,092110.000,A,4341.4784,N,00103.4069,W,74.19,81.72,120809,,,A*76
$GPGGA,092111.000,4341.4812,N,00103.3786,W,1,09,1.0,140.5,M,50.6,M,,0000*4A
$GPGSA,A,3,15,28,17,10,27,08,09,21,24,,,,1.6,1.0,1.2*3F
$GPRMC,092111.000,A,4341.4812,N,00103.3786,W,75.25,82.32,120809,,,A*7F
$GPGGA,092112.000,4341.4840,N,00103.3497,W,1,09,1.0,144.0,M,50.6,M,,0000*4C
$GPGSA,A,3,15,28,17,10,27,08,09,21,24,,,,1.6,1.0,1.2*3F
$GPRMC,092112.000,A,4341.4840,N,00103.3497,W,77.03,82.33,120809,,,A*7F
$GPGGA,092113.000,4341.4868,N,00103.3203,W,1,09,1.0,147.2,M,50.6,M,,0000*4D
$GPGSA,A,3,15,28,17,10,27,08,09,21,24,,,,1.6,1.0,1.2*3F
$GPRMC,092113.000,A,4341.4868,N,00103.3203,W,77.87,82.77,120809,,,A*73
$GPGGA,092114.000,4341.4895,N,00103.2908,W,1,09,1.0,149.9,M,50.6,M,,0000*4C
$GPGSA,A,3,15,28,17,10,27,08,09,21,24,,,,1.6,1.0,1.2*3F
$GPGSV,3,1,10,15,75,323,39,27,47,266,38,28,46,063,33,10,31,181,41*78
$GPGSV,3,2,10,09,27,258,36,08,20,059,26,18,18,316,,17,09,114,41*77
$GPGSV,3,3,10,21,07,282,26,24,05,245,34*77
$GPRMC,092114.000,A,4341.4895,N,00103.2908,W,78.02,82.89,120809,,,A*74
$GPGGA,092115.000,4341.4921,N,00103.2611,W,1,09,1.0,153.0,M,50.6,M,,0000*46
$GPGSA,A,3,15,28,17,10,27,08,09,21,24,,,,1.6,1.0,1.2*3F
$GPRMC,092115.000,A,4341.4921,N,00103.2611,W,78.05,82.89,120809,,,A*7B
$GPGGA,092116.000,4341.4947,N,00103.2313,W,1,09,1.0,156.7,M,50.6,M,,0000*40
$GPGSA,A,3,15,28,17,10,27,08,09,21,24,,,,1.6,1.0,1.2*3F
$GPRMC,092116.000,A,4341.4947,N,00103.2313,W,77.98,83.12,120809,,,A*77
$GPGGA,092117.000,4341.4971,N,00103.2015,W,1,09,1.0,160.8,M,50.6,M,,0000*4B
$GPGSA,A,3,15,28,17,10,27,08,09,21,24,,,,1.6,1.0,1.2*3F
$GPRMC,092117.000,A,4341.4971,N,00103.2015,W,77.70,83.69,120809,,,A*7C
$GPGGA,092118.000,4341.4994,N,00103.1717,W,1,09,1.0,164.9,M,50.6,M,,0000*4C
$GPGSA,A,3,15,28,17,10,27,08,09,21,24,,,,1.6,1.0,1.2*3F
$GPRMC,092118.000,A,4341.4994,N,00103.1717,W,77.85,83.98,120809,,,A*7A
$GPGGA,092119.000,4341.5016,N,00103.1419,W,1,09,1.0,168.2,M,50.6,M,,0000*45
$GPGSA,A,3,15,28,17,10,27,08,09,21,24,,,,1.6,1.0,1.2*3F
$GPGSV,3,1,10,15,75,323,38,27,47,266,39,28,46,063,33,10,31,181,40*79
$GPGSV,3,2,10,09,27,258,36,08,20,060,27,18,18,316,22,17,09,114,41*7C
$GPGSV,3,3,10,21,07,282,26,24,05,245,34*77
$GPRMC,092119.000,A,4341.5016,N,00103.1419,W,78.54,84.26,120809,,,A*75
$GPGGA,092120.000,4341.5036,N,00103.1120,W,1,09,1.0,171.6,M,50.6,M,,0000*4E
$GPGSA,A,3,15,28,17,10,27,08,09,21,24,,,,1.6,1.0,1.2*3F
$GPRMC,092120.000,A,4341.5036,N,00103.1120,W,78.45,85.24,120809,,,A*71
$GPGGA,092121.000,4341.5051,N,00103.0820,W,1,09,1.0,174.9,M,50.6,M,,0000*4C
$GPGSA,A,3,15,28,17,10,27,08,09,21,24,,,,1.6,1.0,1.2*3F
$GPRMC,092121.000,A,4341.5051,N,00103.0820,W,78.37,86.26,120809,,,A*7D
$GPGGA,092122.000,4341.5063,N,00103.0520,W,1,09,1.0,178.4,M,50.6,M,,0000*42
$GPGSA,A,3,15,28,17,10,27,08,09,21,24,,,,1.6,1.0,1.2*3F
$GPRMC,092122.000,A,4341.5063,N,00103.0520,W,78.38,87.30,120809,,,A*7B
$GPGGA,092123.000,4341.5071,N,00103.0219,W,1,09,1.0,182.1,M,50.6,M,,0000*4D
$GPGSA,A,3,15,28,17,10,27,08,09,21,24,,,,1.6,1.0,1.2*3F
$GPRMC,092123.000,A,4341.5071,N,00103.0219,W,78.42,88.39,120809,,,A*7F
$GPGGA,092124.000,4341.5075,N,00102.9917,W,1,09,1.0,185.5,M,50.6,M,,0000*40
$GPGSA,A,3,15,28,17,10,27,08,09,21,24,,,,1.6,1.0,1.2*3F
$GPGSV,3,1,10,15,75,323,38,27,47,266,39,28,46,063,32,10,31,181,40*78
$GPGSV,3,2,10,09,27,258,35,08,20,060,27,18,18,316,,17,09,114,41*7F
$GPGSV,3,3,10,21,07,282,25,24,05,245,34*74
$GPRMC,092124.000,A,4341.5075,N,00102.9917,W,79.09,89.34,120809,,,A*73
$GPGGA,092125.000,4341.5075,N,00102.9612,W,1,10,0.9,189.0,M,50.6,M,,0000*42
$GPGSA,A,3,15,28,17,10,27,08,09,21,24,18,,,1.4,0.9,1.2*3C
$GPRMC,092125.000,A,4341.5075,N,00102.9612,W,79.37,90.20,120809,,,A*78
$GPGGA,092126.000,4341.5073,N,00102.9307,W,1,10,0.9,192.4,M,50.6,M,,0000*48
$GPGSA,A,3,15,28,17,10,27,08,09,21,24,18,,,1.4,0.9,1.2*3C
$GPRMC,092126.000,A,4341.5073,N,00102.9307,W,79.96,90.45,120809,,,A*74
$GPGGA,092127.000,4341.5071,N,00102.8999,W,1,10,0.9,195.5,M,50.6,M,,0000*41
$GPGSA,A,3,15,28,17,10,27,08,09,21,24,18,,,1.4,0.9,1.2*3C
$GPRMC,092127.000,A,4341.5071,N,00102.8999,W,80.68,90.56,120809,,,A*7E
$GPGGA,092128.000,4341.5069,N,00102.8689,W,1,10,0.9,198.5,M,50.6,M,,0000*44
$GPGSA,A,3,15,28,17,10,27,08,09,21,24,18,,,1.4,0.9,1.2*3C
$GPRMC,092128.000,A,4341.5069,N,00102.8689,W,81.19,90.25,120809,,,A*75
$GPGGA,092129.000,4341.5067,N,00102.8377,W,1,10,0.9,201.3,M,50.6,M,,0000*4A
$GPGSA,A,3,15,28,17,10,27,08,09,21,24,18,,,1.4,0.9,1.2*3C
$GPGSV,3,1,10,15,75,323,38,27,47,266,40,28,46,063,33,10,31,181,40*77
$GPGSV,3,2,10,09,27,258,35,08,20,060,26,18,18,316,33,17,09,114,41*7E
$GPGSV,3,3,10,21,07,282,30,24,05,245,31*75
$GPRMC,092129.000,A,4341.5067,N,00102.8377,W,81.90,90.63,120809,,,A*7D
$GPGGA,092130.000,4341.5064,N,00102.8061,W,1,10,0.9,204.0,M,50.6,M,,0000*43
$GPGSA,A,3,15,28,17,10,27,08,09,21,24,18,,,1.4,0.9,1.2*3C
$GPRMC,092130.000,A,4341.5064,N,00102.8061,W,82.85,91.01,120809,,,A*70
$GPGGA,092131.000,4341.5058,N,00102.7742,W,1,10,0.9,206.4,M,50.6,M,,0000*42
$GPGSA,A,3,15,28,17,10,27,08,09,21,24,18,,,1.4,0.9,1.2*3C
$GPRMC,092131.000,A,4341.5058,N,00102.7742,W,83.55,91.72,120809,,,A*7F
$GPGGA,092132.000,4341.5049,N,00102.7422,W,1,10,0.9,208.9,M,50.6,M,,0000*47
$GPGSA,A,3,15,28,17,10,27,08,09,21,24,18,,,1.4,0.9,1.2*3C
$GPRMC,092132.000,A,4341.5049,N,00102.7422,W,83.82,92.59,120809,,,A*79
$GPGGA,092133.000,4341.5036,N,00102.7100,W,1,10,0.9,211.6,M,50.6,M,,0000*4C
$GPGSA,A,3,15,28,17,10,27,08,09,21,24,18,,,1.4,0.9,1.2*3C
$GPRMC,092133.000,A,4341.5036,N,00102.7100,W,84.14,93.31,120809,,,A*72
$GPGGA,092134.000,4341.5020,N,00102.6777,W,1,10,0.9,214.6,M,50.6,M,,0000*4E
$GPGSA,A,3,15,28,17,10,27,08,09,21,24,18,,,1.4,0.9,1.2*3C
$GPGSV,3,1,10,15,75,323,38,27,47,266,41,28,46,063,32,10,31,181,40*77
$GPGSV,3,2,10,09,27,258,35,08,20,060,25,18,18,316,33,17,09,114,40*7C
$GPGSV,3,3,10,21,07,282,30,24,05,245,31*75
$GPRMC,092134.000,A,4341.5020,N,00102.6777,W,84.08,93.96,120809,,,A*75
$GPGGA,092135.000,4341.5002,N,00102.6455,W,1,10,0.9,217.5,M,50.6,M,,0000*4C
$GPGSA,A,3,15,28,17,10,27,08,09,21,24,18,,,1.4,0.9,1.2*3C
$GPRMC,092135.000,A,4341.5002,N,00102.6455,W,84.46,94.81,120809,,,A*7C
$GPGGA,092136.000,4341.4979,N,00102.6132,W,1,10,0.9,220.5,M,50.6,M,,0000*4B
$GPGSA,A,3,15,28,17,10,27,08,09,21,24,18,,,1.4,0.9,1.2*3C
$GPRMC,092136.000,A,4341.4979,N,00102.6132,W,84.55,96.09,120809,,,A*7F
$GPGGA,092137.000,4341.4950,N,00102.5810,W,1,10,0.9,223.7,M,50.6,M,,0000*4A
$GPGSA,A,3,15,28,17,10,27,08,09,21,24,18,,,1.4,0.9,1.2*3C
$GPRMC,092137.000,A,4341.4950,N,00102.5810,W,84.67,97.35,120809,,,A*70
$GPGGA,092138.000,4341.4919,N,00102.5487,W,1,10,0.9,226.9,M,50.6,M,,0000*41
$GPGSA,A,3,15,28,17,10,27,08,09,21,24,18,,,1.4,0.9,1.2*3C
$GPRMC,092138.000,A,4341.4919,N,00102.5487,W,84.72,97.39,120809,,,A*78
$GPGGA,092139.000,4341.4889,N,00102.5165,W,1,10,0.9,230.5,M,50.6,M,,0000*4A
$GPGSA,A,3,15,28,17,10,27,08,09,21,24,18,,,1.4,0.9,1.2*3C
$GPGSV,3,1,10,15,75,323,38,27,47,266,41,28,46,063,32,10,31,181,40*77
$GPGSV,3,2,10,09,27,258,35,08,20,060,32,18,18,316,28,17,09,114,39*7E
$GPGSV,3,3,10,21,07,282,30,24,05,245,34*70
$GPRMC,092139.000,A,4341.4889,N,00102.5165,W,84.51,97.12,120809,,,A*70
$GPGGA,092140.000,4341.4859,N,00102.4842,W,1,10,0.9,234.0,M,50.6,M,,0000*45
$GPGSA,A,3,15,28,17,10,27,08,09,21,24,18,,,1.4,0.9,1.2*3C
$GPRMC,092140.000,A,4341.4859,N,00102.4842,W,84.91,97.18,120809,,,A*78
$GPGGA,092141.000,4341.4827,N,00102.4519,W,1,10,0.9,237.9,M,50.6,M,,0000*44
$GPGSA,A,3,15,28,17,10,27,08,09,21,24,18,,,1.4,0.9,1.2*3C
$GPRMC,092141.000,A,4341.4827,N,00102.4519,W,84.85,97.61,120809,,,A*78
$GPGGA,092142.000,4341.4792,N,00102.4197,W,1,10,0.9,242.1,M,50.6,M,,0000*4E
$GPGSA,A,3,15,28,17,10,27,08,09,21,24,18,,,1.4,0.9,1.2*3C
$GPRMC,092142.000,A,4341.4792,N,00102.4197,W,84.26,98.94,120809,,,A*74
$GPGGA,092143.000,4341.4753,N,00102.3878,W,1,10,0.9,246.6,M,50.6,M,,0000*4E
$GPGSA,A,3,15,28,17,10,27,08,09,21,24,18,,,1.4,0.9,1.2*3C
$GPRMC,092143.000,A,4341.4753,N,00102.3878,W,83.80,99.84,120809,,,A*7C
$GPGGA,092144.000,4341.4710,N,00102.3563,W,1,09,1.0,251.1,M,50.6,M,,0000*48
$GPGSA,A,3,15,28,17,10,27,09,21,24,18,,,,1.5,1.0,1.2*3D
$GPGSV,3,1,10,15,75,323,38,27,47,266,41,28,46,063,25,10,31,181,40*71
$GPGSV,3,2,10,09,27,258,35,08,20,060,20,18,18,316,23,17,09,114,38*77
$GPGSV,3,3,10,21,07,282,31,24,05,245,37*72
$GPRMC,092144.000,A,4341.4710,N,00102.3563,W,83.00,100.73,120809,,,A*4A
$GPGGA,092145.000,4341.4659,N,00102.3252,W,1,09,1.0,256.1,M,50.6,M,,0000*47
$GPGSA,A,3,15,28,17,10,27,09,21,24,18,,,,1.5,1.0,1.2*3D
$GPRMC,092145.000,A,4341.4659,N,00102.3252,W,82.56,102.73,120809,,,A*42
$GPGGA,092146.000,4341.4598,N,00102.2945,W,1,09,1.0,261.4,M,50.6,M,,0000*47
$GPGSA,A,3,15,28,17,10,27,09,21,24,18,,,,1.5,1.0,1.2*3D
$GPRMC,092146.000,A,4341.4598,N,00102.2945,W,82.16,105.32,120809,,,A*45
$GPGGA,092147.000,4341.4526,N,00102.2644,W,1,09,1.0,266.8,M,50.6,M,,0000*46
$GPGSA,A,3,15,28,17,10,27,09,21,24,18,,,,1.5,1.0,1.2*3D
$GPRMC,092147.000,A,4341.4526,N,00102.2644,W,81.74,108.07,120809,,,A*43
$GPGGA,092148.000,4341.4446,N,00102.2349,W,1,10,0.9,272.2,M,50.6,M,,0000*49
$GPGSA,A,3,15,28,17,10,27,08,09,21,24,18,,,1.4,0.9,1.2*3C
$GPRMC,092148.000,A,4341.4446,N,00102.2349,W,81.58,110.36,120809,,,A*46
$GPGGA,092149.000,4341.4359,N,00102.2059,W,1,10,0.9,277.8,M,50.6,M,,0000*4C
$GPGSA,A,3,15,28,17,10,27,08,09,21,24,18,,,1.4,0.9,1.2*3C
$GPGSV,3,1,46,063,20,10,30,181,40*7B
$GPGSV,3,2,10,09,28,258,36,08,20,060,18,18,18,316,19,17,10,114,33*7A
$GPGSV,3,3,10,21,07,282,31,24,05,244,37*73
$GPRMC,092149.000,A,4341.4359,N,00102.2059,W,80.52,111.97,120809,,,A*4D
$GPGGA,092150.000,4341.4266,N,00102.1777,W,1,10,0.9,283.8,M,50.6,M,,0000*4A
$GPGSA,A,3,15,28,17,10,27,08,09,21,24,18,,,1.4,0.9,1.2*3C
$GPRMC,092150.000,A,4341.4266,N,00102.1777,W,79.48,113.73,120809,,,A*45
$GPGGA,092151.000,4341.4165,N,00102.1501,W,1,10,0.9,290.2,M,50.6,M,,0000*40
$GPGSA,A,3,15,28,17,10,27,08,09,21,24,18,,,1.4,0.9,1.2*3C
$GPRMC,092151.000,A,4341.4165,N,00102.1501,W,79.37,116.26,120809,,,A*4A
$GPGGA,092152.000,4341.4053,N,00102.1231,W,1,10,0.9,296.6,M,50.6,M,,0000*41
$GPGSA,A,3,15,28,17,10,27,08,09,21,24,18,,,1.4,0.9,1.2*3C
$GPRMC,092152.000,A,4341.4053,N,00102.1231,W,80.17,119.17,120809,,,A*40
$GPGGA,092153.000,4341.3937,N,00102.0964,W,1,10,0.9,302.2,M,50.6,M,,0000*4E
$GPGSA,A,3,15,28,17,10,27,08,09,21,24,18,,,1.4,0.9,1.2*3C
$GPRMC,092153.000,A,4341.3937,N,00102.0964,W,80.52,120.58,120809,,,A*47
$GPGGA,092154.000,4341.3817,N,00102.0701,W,1,10,0.9,307.6,M,50.6,M,,0000*46
$GPGSA,A,3,15,28,17,10,27,08,09,21,24,18,,,1.4,0.9,1.2*3C
$GPGSV,3,1,10,15,75,323,38,27,48,267,41,28,46,063,24,10,30,181,37*7F
$GPGSV,3,2,10,09,28,258,37,08,20,060,18,18,18,316,25,17,10,114,22*74
$GPGSV,3,3,10,21,07,282,32,24,05,244,38*7F
$GPRMC,092154.000,A,4341.3817,N,00102.0701,W,80.88,122.20,120809,,,A*44
$GPGGA,092155.000,4341.3691,N,00102.0441,W,1,10,0.9,312.7,M,50.6,M,,0000*45
$GPGSA,A,3,15,28,17,10,27,08,09,21,24,18,,,1.4,0.9,1.2*3C
$GPRMC,092155.000,A,4341.3691,N,00102.0441,W,81.34,123.85,120809,,,A*4A
$GPGGA,092156.000,4341.3557,N,00102.0186,W,1,10,0.9,317.6,M,50.6,M,,0000*45
$GPGSA,A,3,15,28,17,10,27,08,09,21,24,18,,,1.4,0.9,1.2*3C
$GPRMC,092156.000,A,4341.3557,N,00102.0186,W,81.53,126.35,120809,,,A*41
$GPGGA,092157.000,4341.3411,N,00101.9942,W,1,10,0.9,322.8,M,50.6,M,,0000*45
$GPGSA,A,3,15,28,17,10,27,08,09,21,24,18,,,1.4,0.9,1.2*3C
$GPRMC,092157.000,A,4341.3411,N,00101.9942,W,81.33,129.83,120809,,,A*4D
$GPGGA,092158.000,4341.3258,N,00101.9708,W,1,10,0.9,327.5,M,50.6,M,,0000*49
$GPGSA,A,3,15,28,17,10,27,08,09,21,24,18,,,1.4,0.9,1.2*3C
$GPRMC,092158.000,A,4341.3258,N,00101.9708,W,81.26,132.51,120809,,,A*48
$GPGGA,092159.000,4341.3097,N,00101.9485,W,1,09,1.0,331.9,M,50.6,M,,0000*44
$GPGSA,A,3,15,28,10,27,08,09,21,24,18,,,,1.6,1.0,1.3*31
$GPGSV,3,1,10,15,75,323,38,27,48,267,41,28,46,063,32,10,30,181,38*77
$GPGSV,3,2,10,09,28,258,38,08,20,060,19,18,18,316,33,17,10,114,24*7B
$GPGSV,3,3,10,21,07,282,32,24,05,244,38*7F
$GPRMC,092159.000,A,4341.3097,N,00101.9485,W,81.12,135.13,120809,,,A*48
$GPGGA,092200.000,4341.2929,N,00101.9274,W,1,08,1.2,336.7,M,50.6,M,,0000*44
$GPGSA,A,3,15,28,10,27,09,21,24,18,,,,,2.0,1.2,1.6*3B
$GPRMC,092200.000,A,4341.2929,N,00101.9274,W,80.80,137.95,120809,,,A*44
$GPGGA,092201.000,4341.2754,N,00101.9075,W,1,08,1.2,341.4,M,50.6,M,,0000*41
$GPGSA,A,3,15,28,10,27,09,21,24,18,,,,,2.0,1.2,1.6*3B
$GPRMC,092201.000,A,4341.2754,N,00101.9075,W,80.73,140.98,120809,,,A*43
$GPGGA,092202.000,4341.2573,N,00101.8889,W,1,09,1.0,346.3,M,50.6,M,,0000*4C
$GPGSA,A,3,15,28,10,27,08,09,21,24,18,,,,1.6,1.0,1.3*31
$GPRMC,092202.000,A,4341.2573,N,00101.8889,W,80.39,143.48,120809,,,A*4D
$GPGGA,092203.000,4341.2387,N,00101.8715,W,1,08,1.2,351.3,M,50.6,M,,0000*4F
$GPGSA,A,3,15,28,10,27,09,21,24,18,,,,,2.0,1.2,1.6*3B
$GPRMC,092203.000,A,4341.2387,N,00101.8715,W,80.19,146.38,120809,,,A*4B
$GPGGA,092204.000,4341.2195,N,00101.8556,W,1,08,1.2,356.4,M,50.6,M,,0000*4C
$GPGSA,A,3,15,28,10,27,09,21,24,18,,,,,2.0,1.2,1.6*3B
$GPGSV,3,1,10,15,75,323,38,27,48,267,36,28,46,063,33,10,30,181,43*7A
$GPGSV,3,2,10,09,28,258,38,08,20,060,,18,18,316,35,17,10,114,*73
$GPGSV,3,3,10,21,07,282,38,24,05,244,27*7B
$GPRMC,092204.000,A,4341.2195,N,00101.8556,W,79.92,149.40,120809,,,A*4D
$GPGGA,092205.000,4341.1997,N,00101.8412,W,1,08,1.2,361.6,M,50.6,M,,0000*43
$GPGSA,A,3,15,28,10,27,09,21,24,18,,,,,2.0,1.2,1.6*3B
$GPRMC,092205.000,A,4341.1997,N,00101.8412,W,79.68,152.39,120809,,,A*45
$GPGGA,092206.000,4341.1795,N,00101.8283,W,1,09,1.0,366.9,M,50.6,M,,0000*49
$GPGSA,A,3,15,28,10,27,17,09,21,24,18,,,,1.5,1.0,1.2*3D
$GPRMC,092206.000,A,4341.1795,N,00101.8283,W,79.17,155.31,120809,,,A*43
$GPGGA,092207.000,4341.1591,N,00101.8167,W,1,08,1.2,371.8,M,50.6,M,,0000*43
$GPGSA,A,3,15,28,10,27,09,21,24,18,,,,,2.0,1.2,1.6*3B
$GPRMC,092207.000,A,4341.1591,N,00101.8167,W,78.95,157.90,120809,,,A*4F
$GPGGA,092208.000,4341.1383,N,00101.8062,W,1,08,1.2,376.0,M,50.6,M,,0000*42
$GPGSA,A,3,15,28,10,27,09,21,24,18,,,,,2.0,1.2,1.6*3B
$GPRMC,092208.000,A,4341.1383,N,00101.8062,W,79.25,160.22,120809,,,A*46
$GPGGA,092209.000,4341.1172,N,00101.7966,W,1,08,1.2,379.9,M,50.6,M,,0000*4B
$GPGSA,A,3,15,28,10,27,09,21,24,18,,,,,2.0,1.2,1.6*3B
$GPGSV,3,1,10,15,75,323,38,27,48,267,36,28,46,063,33,10,30,181,41*78
$GPGSV,3,2,10,09,28,258,39,08,20,060,26,18,18,316,36,17,10,114,20*77
$GPGSV,3,3,10,21,07,282,37,24,05,244,31*73
$GPRMC,092209.000,A,4341.1172,N,00101.7966,W,79.19,162.06,120809,,,A*42
$GPGGA,092210.000,4341.0959,N,00101.7879,W,1,09,1.0,383.3,M,50.6,M,,0000*40
$GPGSA,A,3,15,28,08,10,27,09,21,24,18,,,,1.6,1.0,1.3*31
$GPRMC,092210.000,A,4341.0959,N,00101.7879,W,79.46,163.77,120809,,,A*48
$GPGGA,092211.000,4341.0744,N,00101.7797,W,1,10,0.9,386.3,M,50.6,M,,0000*49
$GPGSA,A,3,15,28,08,10,27,17,09,21,24,18,,,1.4,0.9,1.2*3C
$GPRMC,092211.000,A,4341.0744,N,00101.7797,W,79.90,164.88,120809,,,A*48
$GPGGA,092212.000,4341.0526,N,00101.7721,W,1,10,0.9,389.0,M,50.6,M,,0000*4D
$GPGSA,A,3,15,28,08,10,27,17,09,21,24,18,,,1.4,0.9,1.2*3C
$GPRMC,092212.000,A,4341.0526,N,00101.7721,W,80.61,165.74,120809,,,A*4A
$GPGGA,092213.000,4341.0306,N,00101.7651,W,1,10,0.9,391.6,M,50.6,M,,0000*41
$GPGSA,A,3,15,28,08,10,27,17,09,21,24,18,,,1.4,0.9,1.2*3C
$GPRMC,092213.000,A,4341.0306,N,00101.7651,W,81.06,167.56,120809,,,A*4B
$GPGGA,092214.000,4341.0083,N,00101.7595,W,1,10,0.9,395.2,M,50.6,M,,0000*43
$GPGSA,A,3,15,28,08,10,27,17,09,21,24,18,,,1.4,0.9,1.2*3C
$GPGSV,3,1,10,15,75,323,38,27,48,267,42,28,46,063,34,10,30,181,36*7C
$GPGSV,3,2,10,09,28,258,39,08,20,060,30,18,18,316,37,17,10,114,25*74
$GPGSV,3,3,10,21,07,282,37,24,05,244,32*70
$GPRMC,092214.000,A,4341.0083,N,00101.7595,W,81.23,170.32,120809,,,A*4A
$GPGGA,092215.000,4340.9857,N,00101.7554,W,1,10,0.9,398.9,M,50.6,M,,0000*40
$GPGSA,A,3,15,28,08,10,27,17,09,21,24,18,,,1.4,0.9,1.2*3C
$GPRMC,092215.000,A,4340.9857,N,00101.7554,W,81.42,173.13,120809,,,A*48
$GPGGA,092216.000,4340.9627,N,00101.7541,W,1,10,0.9,404.7,M,50.6,M,,0000*42
$GPGSA,A,3,15,28,08,10,27,17,09,21,24,18,,,1.4,0.9,1.2*3C
$GPRMC,092216.000,A,4340.9627,N,00101.7541,W,81.13,175.94,120809,,,A*4B
$GPGGA,092217.000,4340.9396,N,00101.7542,W,1,10,0.9,410.6,M,50.6,M,,0000*4B
$GPGSA,A,3,15,28,08,10,27,17,09,21,24,18,,,1.4,0.9,1.2*3C
$GPRMC,092217.000,A,4340.9396,N,00101.7542,W,81.48,179.19,120809,,,A*41
$GPGGA,092218.000,4340.9165,N,00101.7559,W,1,10,0.9,415.9,M,50.6,M,,0000*4A
$GPGSA,A,3,15,28,08,10,27,17,09,21,24,18,,,1.4,0.9,1.2*3C
$GPRMC,092218.000,A,4340.9165,N,00101.7559,W,81.91,182.51,120809,,,A*46
$GPGGA,092219.000,4340.8934,N,00101.7592,W,1,09,1.0,420.8,M,50.6,M,,0000*46
$GPGSA,A,3,15,28,08,10,27,09,21,24,18,,,,1.6,1.0,1.3*31
$GPGSV,3,1,10,15,75,323,39,27,48,267,43,28,46,062,32,10,30,181,28*74
$GPGSV,3,2,10,09,28,258,39,08,20,060,34,18,18,316,36,17,10,114,09*7F
$GPGSV,3,3,10,21,07,282,30,24,05,244,39*7C
$GPRMC,092219.000,A,4340.8934,N,00101.7592,W,82.54,185.63,120809,,,A*41
$GPGGA,092220.000,4340.8703,N,00101.7641,W,1,09,1.0,424.9,M,50.6,M,,0000*4E
$GPGSA,A,3,15,28,08,10,27,09,21,24,18,,,,1.6,1.0,1.3*31
$GPRMC,092220.000,A,4340.8703,N,00101.7641,W,83.18,188.30,120809,,,A*4E
$GPGGA,092221.000,4340.8472,N,00101.7707,W,1,09,1.0,429.0,M,50.6,M,,0000*4D
$GPGSA,A,3,15,28,08,10,27,09,21,24,18,,,,1.6,1.0,1.3*31
$GPRMC,092221.000,A,4340.8472,N,00101.7707,W,83.26,191.06,120809,,,A*49
$GPGGA,092222.000,4340.8244,N,00101.7784,W,1,09,1.0,433.1,M,50.6,M,,0000*4C
$GPGSA,A,3,15,28,08,10,27,09,21,24,18,,,,1.6,1.0,1.3*31
$GPRMC,092222.000,A,4340.8244,N,00101.7784,W,83.62,193.15,120809,,,A*42
$GPGGA,092223.000,4340.8017,N,00101.7869,W,1,09,1.0,437.2,M,50.6,M,,0000*42
$GPGSA,A,3,15,28,08,10,27,09,21,24,18,,,,1.6,1.0,1.3*31
$GPRMC,092223.000,A,4340.8017,N,00101.7869,W,83.92,195.03,120809,,,A*45
$GPGGA,092224.000,4340.7791,N,00101.7965,W,1,10,0.9,440.8,M,50.6,M,,0000*44
$GPGSA,A,3,15,28,08,10,27,17,09,21,24,18,,,1.4,0.9,1.2*3C
$GPGSV,3,1,10,15,75,323,38,27,48,267,43,28,46,062,38,10,30,181,27*70
$GPGSV,3,2,10,09,28,258,35,08,20,060,33,18,18,316,36,17,10,114,22*7D
$GPGSV,3,3,10,21,07,282,37,24,05,244,42*77
$GPRMC,092224.000,A,4340.7791,N,00101.7965,W,84.91,196.68,120809,,,A*43
$GPGGA,092225.000,4340.7563,N,00101.8072,W,1,10,0.9,444.3,M,50.6,M,,0000*45
$GPGSA,A,3,15,28,08,10,27,17,09,21,24,18,,,1.4,0.9,1.2*3C
$GPRMC,092225.000,A,4340.7563,N,00101.8072,W,86.29,198.06,120809,,,A*4A
$GPGGA,092226.000,4340.7335,N,00101.8186,W,1,10,0.9,447.7,M,50.6,M,,0000*4E
$GPGSA,A,3,15,28,08,10,27,17,09,21,24,18,,,1.4,0.9,1.2*3C
$GPRMC,092226.000,A,4340.7335,N,00101.8186,W,86.15,199.20,120809,,,A*4C
$GPGGA,092227.000,4340.7109,N,00101.8304,W,1,10,0.9,450.9,M,50.6,M,,0000*42
$GPGSA,A,3,15,28,08,10,27,17,09,21,24,18,,,1.4,0.9,1.2*3C
$GPRMC,092227.000,A,4340.7109,N,00101.8304,W,86.39,200.08,120809,,,A*4F
$GPGGA,092228.000,4340.6883,N,00101.8426,W,1,09,1.0,454.2,M,50.6,M,,0000*4F
$GPGSA,A,3,15,28,08,10,27,09,21,24,18,,,,1.6,1.0,1.3*31
$GPRMC,092228.000,A,4340.6883,N,00101.8426,W,86.70,200.76,120809,,,A*49
$GPGGA,092229.000,4340.6658,N,00101.8552,W,1,09,1.0,457.3,M,50.6,M,,0000*46
$GPGSA,A,3,15,28,08,10,27,09,21,24,18,,,,1.6,1.0,1.3*31
$GPGSV,3,1,10,15,75,323,39,27,48,267,44,28,46,062,39,10,30,181,28*78
$GPGSV,3,2,10,09,28,258,43,08,20,060,35,18,18,316,37,17,10,114,*7B
$GPGSV,3,3,10,21,07,282,36,24,05,244,42*76
$GPRMC,092229.000,A,4340.6658,N,00101.8552,W,87.13,201.67,120809,,,A*47
$GPGGA,092230.000,4340.6433,N,00101.8683,W,1,10,0.9,460.3,M,50.6,M,,0000*4A
$GPGSA,A,3,15,28,08,10,27,17,09,21,24,18,,,1.4,0.9,1.2*3C
$GPRMC,092230.000,A,4340.6433,N,00101.8683,W,87.49,202.57,120809,,,A*40
$GPGGA,092231.000,4340.6209,N,00101.8817,W,1,10,0.9,463.0,M,50.6,M,,0000*47
$GPGSA,A,3,15,28,08,10,27,17,09,21,24,18,,,1.4,0.9,1.2*3C
$GPRMC,092231.000,A,4340.6209,N,00101.8817,W,87.39,203.39,120809,,,A*43
$GPGGA,092232.000,4340.5987,N,00101.8955,W,1,10,0.9,465.9,M,50.6,M,,0000*42
$GPGSA,A,3,15,28,08,10,27,17,09,21,24,18,,,1.4,0.9,1.2*3C
$GPRMC,092232.000,A,4340.5987,N,00101.8955,W,87.51,204.08,120809,,,A*42
$GPGGA,092233.000,4340.5765,N,00101.9097,W,1,10,0.9,468.9,M,50.6,M,,0000*4A
$GPGSA,A,3,15,28,08,10,27,17,09,21,24,18,,,1.4,0.9,1.2*3C
$GPRMC,092233.000,A,4340.5765,N,00101.9097,W,87.74,204.75,120809,,,A*4A
$GPGGA,092234.000,4340.5544,N,00101.9243,W,1,10,0.9,472.2,M,50.6,M,,0000*47
$GPGSA,A,3,15,28,08,10,27,17,09,21,24,18,,,1.4,0.9,1.2*3C
$GPGSV,3,1,10,15,75,323,41,27,48,267,42,28,46,062,39,10,30,181,30*78
$GPGSV,3,2,10,09,28,258,44,08,20,060,28,18,18,316,38,17,10,114,28*75
$GPGSV,3,3,10,21,07,282,37,24,05,244,41*74
$GPRMC,092234.000,A,4340.5544,N,00101.9243,W,87.82,205.49,120809,,,A*40
$GPGGA,092235.000,4340.5323,N,00101.9393,W,1,10,0.9,475.7,M,50.6,M,,0000*4F
$GPGSA,A,3,15,28,08,10,27,17,09,21,24,18,,,1.4,0.9,1.2*3C
$GPRMC,092235.000,A,4340.5323,N,00101.9393,W,87.89,206.16,120809,,,A*48
$GPGGA,092236.000,4340.5103,N,00101.9546,W,1,10,0.9,479.2,M,50.6,M,,0000*4B
$GPGSA,A,3,15,28,08,10,27,17,09,21,24,18,,,1.4,0.9,1.2*3C
$GPRMC,092236.000,A,4340.5103,N,00101.9546,W,88.67,206.53,120809,,,A*4B
$GPGGA,092237.000,4340.4882,N,00101.9701,W,1,10,0.9,482.8,M,50.6,M,,0000*44
$GPGSA,A,3,15,28,08,10,27,17,09,21,24,18,,,1.4,0.9,1.2*3C
$GPRMC,092237.000,A,4340.4882,N,00101.9701,W,89.16,206.54,120809,,,A*4A
$GPGGA,092238.000,4340.4659,N,00101.9856,W,1,09,1.0,486.4,M,50.6,M,,0000*46
$GPGSA,A,3,15,28,10,27,17,09,21,24,18,,,,1.5,1.0,1.2*3D
$GPRMC,092238.000,A,4340.4659,N,00101.9856,W,89.56,206.45,120809,,,A*44
$GPGGA,092239.000,4340.4436,N,00102.0013,W,1,09,1.0,490.1,M,50.6,M,,0000*4D
$GPGSA,A,3,15,28,10,27,17,09,21,24,18,,,,1.5,1.0,1.2*3D
$GPGSV,3,1,10,15,75,323,41,27,48,267,40,28,46,062,38,10,30,181,30*7B
$GPGSV,3,2,10,09,28,258,44,08,20,060,,18,18,316,39,17,10,114,26*70
$GPGSV,3,3,10,21,07,282,37,24,05,244,41*74
$GPRMC,092239.000,A,4340.4436,N,00102.0013,W,90.33,207.02,120809,,,A*44
$GPGGA,092240.000,4340.4212,N,00102.0172,W,1,09,1.0,493.9,M,50.6,M,,0000*4E
$GPGSA,A,3,15,28,10,27,17,09,21,24,18,,,,1.5,1.0,1.2*3D
$GPRMC,092240.000,A,4340.4212,N,00102.0172,W,89.90,206.74,120809,,,A*4D
$GPGGA,092241.000,4340.3988,N,00102.0327,W,1,09,1.0,497.4,M,50.6,M,,0000*4B
$GPGSA,A,3,15,28,10,27,17,09,21,24,18,,,,1.5,1.0,1.2*3D
$GPRMC,092241.000,A,4340.3988,N,00102.0327,W,90.98,206.49,120809,,,A*4F
$GPGGA,092242.000,4340.3761,N,00102.0485,W,1,09,1.0,500.6,M,50.6,M,,0000*43
$GPGSA,A,3,15,28,10,27,17,09,21,24,18,,,,1.5,1.0,1.2*3D
$GPRMC,092242.000,A,4340.3761,N,00102.0485,W,91.89,207.04,120809,,,A*43
$GPGGA,092243.000,4340.3534,N,00102.0647,W,1,09,1.0,503.8,M,50.6,M,,0000*41
$GPGSA,A,3,15,28,10,27,17,09,21,24,18,,,,1.5,1.0,1.2*3D
$GPRMC,092243.000,A,4340.3534,N,00102.0647,W,92.24,207.71,120809,,,A*4A
$GPGGA,092244.000,4340.3308,N,00102.0814,W,1,09,1.0,507.1,M,50.6,M,,0000*4A
$GPGSA,A,3,15,28,10,27,17,09,21,24,18,,,,1.5,1.0,1.2*3D
$GPGSV,3,1,10,15,75,323,42,27,48,267,40,28,46,062,33,10,30,181,29*7B
$GPGSV,3,2,10,09,28,258,45,08,20,060,,18,18,316,39,17,10,114,26*71
$GPGSV,3,3,10,21,07,282,36,24,05,244,41*75
$GPRMC,092244.000,A,4340.3308,N,00102.0814,W,92.62,208.58,120809,,,A*4A
$GPGGA,092245.000,4340.3082,N,00102.0987,W,1,09,1.0,510.6,M,50.6,M,,0000*40
$GPGSA,A,3,15,28,10,27,17,09,21,24,18,,,,1.5,1.0,1.2*3D
$GPRMC,092245.000,A,4340.3082,N,00102.0987,W,92.67,209.26,120809,,,A*4C
$GPGGA,092246.000,4340.2858,N,00102.1163,W,1,09,1.0,514.4,M,50.6,M,,0000*48
$GPGSA,A,3,15,28,10,27,17,09,21,24,18,,,,1.5,1.0,1.2*3D
$GPRMC,092246.000,A,4340.2858,N,00102.1163,W,92.72,209.86,120809,,,A*4C
$GPGGA,092247.000,4340.2635,N,00102.1343,W,1,09,1.0,518.4,M,50.6,M,,0000*40
$GPGSA,A,3,15,28,10,27,17,09,21,24,18,,,,1.6,1.0,1.2*3E
$GPRMC,092247.000,A,4340.2635,N,00102.1343,W,92.46,210.34,120809,,,A*4E
$GPGGA,092248.000,4340.2412,N,00102.1524,W,1,09,1.0,522.4,M,50.6,M,,0000*46
$GPGSA,A,3,15,28,10,27,17,09,21,24,18,,,,1.6,1.0,1.2*3E
$GPRMC,092248.000,A,4340.2412,N,00102.1524,W,93.34,210.72,120809,,,A*47
$GPGGA,092249.000,4340.2189,N,00102.1709,W,1,09,1.0,526.3,M,50.6,M,,0000*4E
$GPGSA,A,3,15,28,10,27,17,09,21,24,18,,,,1.6,1.0,1.2*3E
$GPGSV,3,1,10,15,75,324,42,27,48,267,39,28,46,062,33,10,30,180,30*7B
$GPGSV,3,2,10,09,28,259,44,08,19,060,23,18,18,316,38,17,10,114,27*7A
$GPGSV,3,3,10,21,07,281,36,24,04,244,40*76
$GPRMC,092249.000,A,4340.2189,N,00102.1709,W,93.71,211.01,120809,,,A*48
$GPGGA,092250.000,4340.1965,N,00102.1894,W,1,09,1.0,530.4,M,50.6,M,,0000*44
$GPGSA,A,3,15,28,10,27,17,09,21,24,18,,,,1.6,1.0,1.2*3E
$GPRMC,092250.000,A,4340.1965,N,00102.1894,W,93.91,210.98,120809,,,A*4D
$GPGGA,092251.000,4340.1740,N,00102.2079,W,1,10,0.9,534.3,M,50.6,M,,0000*47
$GPGSA,A,3,15,28,08,10,27,17,09,21,24,18,,,1.4,0.9,1.2*3C
$GPRMC,092251.000,A,4340.1740,N,00102.2079,W,94.21,210.67,120809,,,A*41
$GPGGA,092252.000,4340.1514,N,00102.2262,W,1,09,1.0,538.3,M,50.6,M,,0000*43
$GPGSA,A,3,15,28,10,27,17,09,21,24,18,,,,1.6,1.0,1.2*3E
$GPRMC,092252.000,A,4340.1514,N,00102.2262,W,94.36,210.15,120809,,,A*4A
$GPGGA,092253.000,4340.1286,N,00102.2442,W,1,09,1.0,542.3,M,50.6,M,,0000*47
$GPGSA,A,3,15,28,10,27,17,09,21,24,18,,,,1.6,1.0,1.2*3E
$GPRMC,092253.000,A,4340.1286,N,00102.2442,W,94.40,209.49,120809,,,A*43
$GPGGA,092254.000,4340.1057,N,00102.2618,W,1,09,1.0,546.3,M,50.6,M,,0000*47
$GPGSA,A,3,15,28,10,27,17,09,21,24,18,,,,1.6,1.0,1.2*3E
$GPGSV,3,1,10,15,75,324,42,27,48,267,42,28,46,062,34,10,30,180,30*70
$GPGSV,3,2,10,09,28,259,43,08,19,060,,18,18,316,39,17,10,114,31*7A
$GPGSV,3,3,10,21,07,281,36,24,04,244,39*78
$GPRMC,092254.000,A,4340.1057,N,00102.2618,W,94.58,208.88,120809,,,A*42
$GPGGA,092255.000,4340.0826,N,00102.2793,W,1,09,1.0,550.0,M,50.6,M,,0000*4F
$GPGSA,A,3,15,28,10,27,17,09,21,24,18,,,,1.6,1.0,1.2*3E
$GPRMC,092255.000,A,4340.0826,N,00102.2793,W,94.99,208.60,120809,,,A*45
$GPGGA,092256.000,4340.0594,N,00102.2966,W,1,09,1.0,553.4,M,50.6,M,,0000*4B
$GPGSA,A,3,15,28,10,27,17,09,21,24,18,,,,1.6,1.0,1.2*3E
$GPRMC,092256.000,A,4340.0594,N,00102.2966,W,95.38,208.61,120809,,,A*4D
$GPGGA,092257.000,4340.0361,N,00102.3142,W,1,09,1.0,556.6,M,50.6,M,,0000*4E
$GPGSA,A,3,15,28,10,27,17,09,21,24,18,,,,1.6,1.0,1.2*3E
$GPRMC,092257.000,A,4340.0361,N,00102.3142,W,95.91,208.95,120809,,,A*47
$GPGGA,092258.000,4340.0127,N,00102.3320,W,1,09,1.0,559.6,M,50.6,M,,0000*48
$GPGSA,A,3,15,28,10,27,17,09,21,24,18,,,,1.6,1.0,1.2*3E
$GPRMC,092258.000,A,4340.0127,N,00102.3320,W,96.37,209.07,120809,,,A*4B
$GPGGA,092259.000,4339.9893,N,00102.3500,W,1,09,1.0,562.5,M,50.6,M,,0000*47
$GPGSA,A,3,15,28,10,27,17,09,21,24,18,,,,1.6,1.0,1.2*3E
$GPGSV,3,1,10,15,75,324,42,27,48,267,40,28,46,062,34,10,30,180,30*72
$GPGSV,3,2,10,09,28,259,44,08,19,060,24,18,18,316,39,17,10,114,25*7E
$GPGSV,3,3,10,21,07,281,35,24,04,244,39*7B
$GPRMC,092259.000,A,4339.9893,N,00102.3500,W,96.67,209.26,120809,,,A*49
$GPGGA,092300.000,4339.9658,N,00102.3682,W,1,09,1.0,565.3,M,50.6,M,,0000*4B
$GPGSA,A,3,15,28,10,27,17,09,21,24,18,,,,1.6,1.0,1.2*3E
$GPRMC,092300.000,A,4339.9658,N,00102.3682,W,97.08,209.56,120809,,,A*4B
$GPGGA,092301.000,4339.9423,N,00102.3867,W,1,09,1.0,568.0,M,50.6,M,,0000*4F
$GPGSA,A,3,15,28,10,27,17,09,21,24,18,,,,1.6,1.0,1.2*3E
$GPRMC,092301.000,A,4339.9423,N,00102.3867,W,97.40,209.99,120809,,,A*4E
$GPGGA,092302.000,4339.9189,N,00102.4055,W,1,09,1.0,570.9,M,50.6,M,,0000*47
$GPGSA,A,3,15,28,10,27,17,09,21,24,18,,,,1.6,1.0,1.2*3E
$GPRMC,092302.000,A,4339.9189,N,00102.4055,W,97.52,210.33,120809,,,A*4D
$GPGGA,092303.000,4339.8956,N,00102.4245,W,1,09,1.0,574.2,M,50.6,M,,0000*41
$GPGSA,A,3,15,28,10,27,17,09,21,24,18,,,,1.6,1.0,1.2*3E
$GPRMC,092303.000,A,4339.8956,N,00102.4245,W,97.07,210.58,120809,,,A*49
$GPGGA,092304.000,4339.8723,N,00102.4436,W,1,09,1.0,577.4,M,50.6,M,,0000*4D
$GPGSA,A,3,15,28,10,27,17,09,21,24,18,,,,1.6,1.0,1.2*3E
$GPGSV,3,1,10,15,75,324,42,27,48,267,38,28,46,062,29,10,30,180,30*71
$GPGSV,3,2,10,09,28,259,45,08,19,060,,18,18,316,39,17,10,114,26*7A
$GPGSV,3,3,10,21,07,281,35,24,04,244,39*7B
$GPRMC,092304.000,A,4339.8723,N,00102.4436,W,97.59,210.93,120809,,,A*4C
$GPGGA,092305.000,4339.8490,N,00102.4631,W,1,10,0.9,580.6,M,50.6,M,,0000*48
$GPGSA,A,3,15,28,08,10,27,17,09,21,24,18,,,1.4,0.9,1.2*3C
$GPRMC,092305.000,A,4339.8490,N,00102.4631,W,97.91,211.37,120809,,,A*48
$GPGGA,092306.000,4339.8258,N,00102.4828,W,1,09,1.0,584.3,M,50.6,M,,0000*4E
$GPGSA,A,3,15,28,10,27,17,09,21,24,18,,,,1.6,1.0,1.2*3E
$GPRMC,092306.000,A,4339.8258,N,00102.4828,W,97.35,211.65,120809,,,A*46
$GPGGA,092307.000,4339.8029,N,00102.5026,W,1,09,1.0,588.3,M,50.6,M,,0000*40
$GPGSA,A,3,15,28,10,27,17,09,21,24,18,,,,1.6,1.0,1.2*3E
$GPRMC,092307.000,A,4339.8029,N,00102.5026,W,96.75,212.04,120809,,,A*45
$GPGGA,092308.000,4339.7802,N,00102.5225,W,1,09,1.0,592.5,M,50.6,M,,0000*4D
$GPGSA,A,3,15,28,10,27,17,09,21,24,18,,,,1.6,1.0,1.2*3E
$GPRMC,092308.000,A,4339.7802,N,00102.5225,W,95.91,212.34,120809,,,A*4F
$GPGGA,092309.000,4339.7577,N,00102.5432,W,1,09,1.0,598.0,M,50.6,M,,0000*4C
$GPGSA,A,3,15,28,10,27,17,09,21,24,18,,,,1.6,1.0,1.2*3E
$GPGSV,3,1,10,15,75,324,43,27,48,267,37,28,46,062,33,10,30,180,24*71
$GPGSV,3,2,10,09,28,259,44,08,19,060,,18,18,316,33,17,10,114,27*70
$GPGSV,3,3,10,21,07,281,35,24,04,244,39*7B
$GPRMC,092309.000,A,4339.7577,N,00102.5432,W,95.22,212.77,120809,,,A*4E
$GPGGA,092310.000,4339.7355,N,00102.5638,W,1,09,1.0,603.8,M,50.6,M,,0000*43
$GPGSA,A,3,15,28,10,27,17,09,21,24,18,,,,1.6,1.0,1.2*3E
$GPRMC,092310.000,A,4339.7355,N,00102.5638,W,94.54,213.12,120809,,,A*4A
$GPGGA,092311.000,4339.7135,N,00102.5846,W,1,09,1.0,609.8,M,50.6,M,,0000*4B
$GPGSA,A,3,15,28,10,27,17,09,21,24,18,,,,1.6,1.0,1.2*3E
$GPRMC,092311.000,A,4339.7135,N,00102.5846,W,94.27,213.73,120809,,,A*4B
$GPGGA,092312.000,4339.6919,N,00102.6056,W,1,09,1.0,616.1,M,50.6,M,,0000*42
$GPGSA,A,3,15,28,10,27,17,09,21,24,18,,,,1.6,1.0,1.2*3E
$GPRMC,092312.000,A,4339.6919,N,00102.6056,W,93.72,214.47,120809,,,A*42
$GPGGA,092313.000,4339.6705,N,00102.6267,W,1,09,1.0,622.4,M,50.6,M,,0000*42
$GPGSA,A,3,15,28,10,27,17,09,21,24,18,,,,1.6,1.0,1.2*3E
$GPRMC,092313.000,A,4339.6705,N,00102.6267,W,93.30,215.01,120809,,,A*45
$GPGGA,092314.000,4339.6494,N,00102.6479,W,1,10,0.9,628.5,M,50.6,M,,0000*4C
$GPGSA,A,3,15,28,08,10,27,17,09,21,24,18,,,1.4,0.9,1.2*3C
$GPGSV,3,1,10,15,75,324,43,27,48,267,39,28,46,062,33,10,30,180,32*78
$GPGSV,3,2,10,09,28,259,43,08,19,060,30,18,18,316,33,17,10,114,28*7B
$GPGSV,3,3,10,21,07,281,36,24,04,244,38*79
$GPRMC,092314.000,A,4339.6494,N,00102.6479,W,93.13,215.81,120809,,,A*49
$GPGGA,092315.000,4339.6285,N,00102.6694,W,1,10,0.9,634.5,M,50.6,M,,0000*47
$GPGSA,A,3,15,28,08,10,27,17,09,21,24,18,,,1.4,0.9,1.2*3C
$GPRMC,092315.000,A,4339.6285,N,00102.6694,W,92.72,216.60,120809,,,A*45
$GPGGA,092316.000,4339.6080,N,00102.6910,W,1,10,0.9,640.4,M,50.6,M,,0000*42
$GPGSA,A,3,15,28,08,10,27,17,09,21,24,18,,,1.4,0.9,1.2*3C
$GPRMC,092316.000,A,4339.6080,N,00102.6910,W,92.36,217.14,120809,,,A*40
$GPGGA,092317.000,4339.5877,N,00102.7127,W,1,10,0.9,645.9,M,50.6,M,,0000*45
$GPGSA,A,3,15,28,08,10,27,17,09,21,24,18,,,1.4,0.9,1.2*3C
$GPRMC,092317.000,A,4339.5877,N,00102.7127,W,92.07,217.60,120809,,,A*4E
$GPGGA,092318.000,4339.5675,N,00102.7345,W,1,10,0.9,651.2,M,50.6,M,,0000*4E
$GPGSA,A,3,15,28,08,10,27,17,09,21,24,18,,,1.4,0.9,1.2*3C
$GPRMC,092318.000,A,4339.5675,N,00102.7345,W,92.05,217.78,120809,,,A*40
$GPGGA,092319.000,4339.5473,N,00102.7563,W,1,10,0.9,656.1,M,50.6,M,,0000*4D
$GPGSA,A,3,15,28,08,10,27,17,09,21,24,18,,,1.4,0.9,1.2*3C
$GPGSV,3,1,10,15,76,324,43,27,48,267,40,28,46,062,34,10,30,180,30*70
$GPGSV,3,2,10,09,28,259,43,08,19,060,33,18,18,316,29,17,10,113,27*7B
$GPGSV,3,3,10,21,07,281,37,24,04,244,38*78
$GPRMC,092319.000,A,4339.5473,N,00102.7563,W,92.21,217.90,120809,,,A*47
$GPGGA,092320.000,4339.5273,N,00102.7782,W,1,10,0.9,660.8,M,50.6,M,,0000*40
$GPGSA,A,3,15,28,08,10,27,17,09,21,24,18,,,1.4,0.9,1.2*3C
$GPRMC,092320.000,A,4339.5273,N,00102.7782,W,92.11,218.22,120809,,,A*43
$GPGGA,092321.000,4339.5073,N,00102.8004,W,1,10,0.9,665.6,M,50.6,M,,0000*4E
$GPGSA,A,3,15,28,08,10,27,17,09,21,24,18,,,1.4,0.9,1.2*3C
$GPRMC,092321.000,A,4339.5073,N,00102.8004,W,91.91,218.85,120809,,,A*40
$GPGGA,092322.000,4339.4876,N,00102.8228,W,1,10,0.9,670.2,M,50.6,M,,0000*4D
$GPGSA,A,3,15,28,08,10,27,17,09,21,24,18,,,1.4,0.9,1.2*3C
$GPRMC,092322.000,A,4339.4876,N,00102.8228,W,91.84,219.41,120809,,,A*4E
$GPGGA,092323.000,4339.4679,N,00102.8453,W,1,10,0.9,675.3,M,50.6,M,,0000*43
$GPGSA,A,3,15,28,08,10,27,17,09,21,24,18,,,1.4,0.9,1.2*3C
$GPRMC,092323.000,A,4339.4679,N,00102.8453,W,91.19,219.82,120809,,,A*4F
$GPGGA,092324.000,4339.4485,N,00102.8679,W,1,10,0.9,680.4,M,50.6,M,,0000*42
$GPGSA,A,3,15,28,08,10,27,17,09,21,24,18,,,1.4,0.9,1.2*3C
$GPGSV,3,1,10,15,76,324,44,27,48,267,41,28,46,062,33,10,30,180,30*71
$GPGSV,3,2,10,09,28,259,43,08,19,060,33,18,18,316,29,17,10,113,28*74
$GPGSV,3,3,10,21,07,281,39,24,04,244,37*79
$GPRMC,092324.000,A,4339.4485,N,00102.8679,W,91.01,220.19,120809,,,A*42
$GPGGA,092325.000,4339.4292,N,00102.8906,W,1,10,0.9,685.3,M,50.6,M,,0000*46
$GPGSA,A,3,15,28,08,10,27,17,09,21,24,18,,,1.4,0.9,1.2*3C
$GPRMC,092325.000,A,4339.4292,N,00102.8906,W,91.01,220.59,120809,,,A*40
$GPGGA,092326.000,4339.4101,N,00102.9136,W,1,09,0.9,690.3,M,50.6,M,,0000*4A
$GPGSA,A,3,15,28,08,10,27,17,09,21,18,,,,1.5,0.9,1.3*3A
$GPRMC,092326.000,A,4339.4101,N,00102.9136,W,90.97,221.01,120809,,,A*42
$GPGGA,092327.000,4339.3911,N,00102.9367,W,1,09,0.9,695.1,M,50.6,M,,0000*44
$GPGSA,A,3,15,28,08,10,27,17,09,21,18,,,,1.5,0.9,1.3*3A
$GPRMC,092327.000,A,4339.3911,N,00102.9367,W,90.87,221.39,120809,,,A*41
$GPGGA,092328.000,4339.3722,N,00102.9599,W,1,09,0.9,699.9,M,50.6,M,,0000*46
$GPGSA,A,3,15,28,08,10,27,17,09,21,18,,,,1.5,0.9,1.3*3A
$GPRMC,092328.000,A,4339.3722,N,00102.9599,W,90.64,221.59,120809,,,A*4C
$GPGGA,092329.000,4339.3534,N,00102.9830,W,1,09,0.9,704.6,M,50.6,M,,0000*46
$GPGSA,A,3,15,28,08,10,27,17,09,21,18,,,,1.5,0.9,1.3*3A
$GPGSV,3,1,10,15,76,324,44,27,48,267,41,28,46,062,34,10,30,180,30*76
$GPGSV,3,2,10,09,28,259,42,08,19,060,34,18,18,316,29,17,10,113,30*7B
$GPGSV,3,3,10,21,07,281,39,24,04,244,37*79
$GPRMC,092329.000,A,4339.3534,N,00102.9830,W,90.53,221.69,120809,,,A*41
$GPGGA,092330.000,4339.3346,N,00103.0062,W,1,09,0.9,709.3,M,50.6,M,,0000*42
$GPGSA,A,3,15,28,08,10,27,17,09,21,18,,,,1.5,0.9,1.3*3A
$GPRMC,092330.000,A,4339.3346,N,00103.0062,W,90.33,221.85,120809,,,A*49
$GPGGA,092331.000,4339.3160,N,00103.0295,W,1,09,0.9,714.0,M,50.6,M,,0000*40
$GPGSA,A,3,15,28,08,10,27,17,09,21,18,,,,1.5,0.9,1.3*3A
$GPRMC,092331.000,A,4339.3160,N,00103.0295,W,90.08,222.08,120809,,,A*4A
$GPGGA,092332.000,4339.2975,N,00103.0527,W,1,09,0.9,718.8,M,50.6,M,,0000*44
$GPGSA,A,3,15,28,08,10,27,17,09,21,18,,,,1.5,0.9,1.3*3A
$GPRMC,092332.000,A,4339.2975,N,00103.0527,W,89.77,222.33,120809,,,A*42
$GPGGA,092333.000,4339.2791,N,00103.0759,W,1,09,0.9,723.6,M,50.6,M,,0000*4C
$GPGSA,A,3,15,28,08,10,27,17,09,21,18,,,,1.5,0.9,1.3*3A
$GPRMC,092333.000,A,4339.2791,N,00103.0759,W,89.39,222.52,120809,,,A*41
$GPGGA,092334.000,4339.2609,N,00103.0992,W,1,09,0.9,728.5,M,50.6,M,,0000*4A
$GPGSA,A,3,15,28,08,10,27,17,09,21,18,,,,1.5,0.9,1.3*3A
$GPGSV,3,1,10,15,76,324,45,27,48,267,42,28,46,062,34,10,30,180,30*74
$GPGSV,3,2,10,09,28,259,42,08,19,060,33,18,18,316,29,17,10,113,31*7D
$GPGSV,3,3,10,21,07,281,40,24,04,244,36*76
$GPRMC,092334.000,A,4339.2609,N,00103.0992,W,88.95,222.80,120809,,,A*47
$GPGGA,092335.000,4339.2428,N,00103.1224,W,1,09,0.9,733.5,M,50.6,M,,0000*47
$GPGSA,A,3,15,28,08,10,27,17,09,21,18,,,,1.5,0.9,1.3*3A
$GPRMC,092335.000,A,4339.2428,N,00103.1224,W,88.48,223.08,120809,,,A*41
$GPGGA,092336.000,4339.2250,N,00103.1457,W,1,09,0.9,738.5,M,50.6,M,,0000*44
$GPGSA,A,3,15,28,08,10,27,17,09,21,18,,,,1.5,0.9,1.3*3A
$GPRMC,092336.000,A,4339.2250,N,00103.1457,W,88.12,223.30,120809,,,A*4D
$GPGGA,092337.000,4339.2073,N,00103.1689,W,1,08,1.0,743.3,M,50.6,M,,0000*44
$GPGSA,A,3,15,28,10,27,17,09,21,18,,,,,1.6,1.0,1.3*39
$GPRMC,092337.000,A,4339.2073,N,00103.1689,W,87.91,223.47,120809,,,A*4A
$GPGGA,092338.000,4339.1897,N,00103.1921,W,1,08,1.0,748.0,M,50.6,M,,0000*4F
$GPGSA,A,3,15,28,10,27,17,09,21,18,,,,,1.6,1.0,1.3*39
$GPRMC,092338.000,A,4339.1897,N,00103.1921,W,87.67,223.52,120809,,,A*44
$GPGGA,092339.000,4339.1721,N,00103.2152,W,1,09,0.9,752.5,M,50.6,M,,0000*44
$GPGSA,A,3,15,28,08,10,27,17,09,21,18,,,,1.5,0.9,1.3*3A
$GPGSV,3,1,10,15,76,324,45,27,48,267,42,28,46,062,35,10,30,180,30*75
$GPGSV,3,2,10,09,28,259,41,08,19,060,29,18,18,316,31,17,10,113,32*7F
$GPGSV,3,3,10,21,07,281,40,24,04,244,35*75
$GPRMC,092339.000,A,4339.1721,N,00103.2152,W,87.43,223.56,120809,,,A*4A
$GPGGA,092340.000,4339.1547,N,00103.2383,W,1,09,0.9,756.8,M,50.6,M,,0000*4F
$GPGSA,A,3,15,28,08,10,27,17,09,21,18,,,,1.5,0.9,1.3*3A
$GPRMC,092340.000,A,4339.1547,N,00103.2383,W,87.32,223.63,120809,,,A*48
$GPGGA,092341.000,4339.1373,N,00103.2615,W,1,09,0.9,761.1,M,50.6,M,,0000*48
$GPGSA,A,3,15,28,08,10,27,17,09,21,18,,,,1.5,0.9,1.3*3A
$GPRMC,092341.000,A,4339.1373,N,00103.2615,W,87.17,223.79,120809,,,A*4E
$GPGGA,092342.000,4339.1199,N,00103.2846,W,1,09,0.9,765.4,M,50.6,M,,0000*44
$GPGSA,A,3,15,28,08,10,27,17,09,21,18,,,,1.5,0.9,1.3*3A
$GPRMC,092342.000,A,4339.1199,N,00103.2846,W,86.96,223.87,120809,,,A*4A
$GPGGA,092343.000,4339.1026,N,00103.3078,W,1,09,0.9,769.8,M,50.6,M,,0000*44
$GPGSA,A,3,15,28,08,10,27,17,09,21,18,,,,1.5,0.9,1.3*3A
$GPRMC,092343.000,A,4339.1026,N,00103.3078,W,86.86,223.88,120809,,,A*44
$GPGGA,092344.000,4339.0853,N,00103.3309,W,1,09,0.9,774.1,M,50.6,M,,0000*48
$GPGSA,A,3,15,28,08,10,27,17,09,21,18,,,,1.5,0.9,1.3*3A
$GPGSV,3,1,10,15,76,324,45,27,48,267,42,28,46,062,36,10,30,180,29*7E
$GPGSV,3,2,10,09,28,259,41,08,19,060,30,18,18,316,35,17,10,113,33*72
$GPGSV,3,3,10,21,07,281,39,24,04,244,35*7B
$GPRMC,092344.000,A,4339.0853,N,00103.3309,W,86.84,223.96,120809,,,A*40
$GPGGA,092345.000,4339.0680,N,00103.3541,W,1,09,0.9,778.3,M,50.6,M,,0000*4D
$GPGSA,A,3,15,28,08,10,27,17,09,21,18,,,,1.5,0.9,1.3*3A
$GPRMC,092345.000,A,4339.0680,N,00103.3541,W,86.89,224.21,120809,,,A*4D
$GPGGA,092346.000,4339.0509,N,00103.3774,W,1,09,0.9,782.6,M,50.6,M,,0000*48
$GPGSA,A,3,15,28,08,10,27,17,09,21,18,,,,1.5,0.9,1.3*3A
$GPRMC,092346.000,A,4339.0509,N,00103.3774,W,86.85,224.75,120809,,,A*45
$GPGGA,092347.000,4339.0339,N,00103.4010,W,1,09,0.9,786.9,M,50.6,M,,0000*45
$GPGSA,A,3,15,28,08,10,27,17,09,21,18,,,,1.5,0.9,1.3*3A
$GPRMC,092347.000,A,4339.0339,N,00103.4010,W,86.78,225.24,120809,,,A*44
$GPGGA,092348.000,4339.0171,N,00103.4248,W,1,09,0.9,791.4,M,50.6,M,,0000*40
$GPGSA,A,3,15,28,08,10,27,17,09,21,18,,,,1.5,0.9,1.3*3A
$GPRMC,092348.000,A,4339.0171,N,00103.4248,W,86.71,225.90,120809,,,A*4C
$GPGGA,092349.000,4339.0005,N,00103.4488,W,1,09,0.9,796.1,M,50.6,M,,0000*4B
$GPGSA,A,3,15,28,08,10,27,17,09,21,18,,,,1.5,0.9,1.3*3A
$GPGSV,3,1,10,15,76,324,45,27,48,268,42,28,46,062,36,10,29,180,30*71
$GPGSV,3,2,10,09,28,259,39,08,19,060,31,18,19,316,36,17,10,113,34*79
$GPGSV,3,3,10,21,06,281,40,24,04,244,35*74
$GPRMC,092349.000,A,4339.0005,N,00103.4488,W,86.44,226.54,120809,,,A*48
$GPGGA,092350.000,4338.9842,N,00103.4731,W,1,09,0.9,800.8,M,50.6,M,,0000*48
$GPGSA,A,3,15,28,08,10,27,17,09,21,18,,,,1.5,0.9,1.3*3A
$GPRMC,092350.000,A,4338.9842,N,00103.4731,W,86.28,227.37,120809,,,A*4C
$GPGGA,092351.000,4338.9682,N,00103.4976,W,1,09,0.9,805.7,M,50.6,M,,0000*4C
$GPGSA,A,3,15,28,08,10,27,17,09,21,18,,,,1.5,0.9,1.3*3A
$GPRMC,092351.000,A,4338.9682,N,00103.4976,W,86.00,227.92,120809,,,A*47
$GPGGA,092352.000,4338.9522,N,00103.5221,W,1,09,0.9,810.5,M,50.6,M,,0000*48
$GPGSA,A,3,15,28,08,10,27,17,09,21,18,,,,1.5,0.9,1.3*3A
$GPRMC,092352.000,A,4338.9522,N,00103.5221,W,85.86,228.01,120809,,,A*4D
$GPGGA,092353.000,4338.9363,N,00103.5465,W,1,09,0.9,814.8,M,50.6,M,,0000*45
$GPGSA,A,3,15,28,08,10,27,17,09,21,18,,,,1.5,0.9,1.3*3A
$GPRMC,092353.000,A,4338.9363,N,00103.5465,W,86.31,227.94,120809,,,A*45
$GPGGA,092354.000,4338.9202,N,00103.5712,W,1,09,0.9,818.8,M,50.6,M,,0000*4B
$GPGSA,A,3,15,28,08,10,27,17,09,21,18,,,,1.5,0.9,1.3*3A
$GPGSV,3,1,10,15,76,324,45,27,48,268,41,28,46,062,37,10,29,180,31*72
$GPGSV,3,2,10,09,28,259,39,08,19,060,32,18,19,316,37,17,10,113,35*7A
$GPGSV,3,3,10,21,06,281,40,24,04,244,34*75
$GPRMC,092354.000,A,4338.9202,N,00103.5712,W,87.06,228.07,120809,,,A*47
$GPGGA,092355.000,4338.9042,N,00103.5962,W,1,09,0.9,822.4,M,50.6,M,,0000*40
$GPGSA,A,3,15,28,08,10,27,17,09,21,18,,,,1.5,0.9,1.3*3A
$GPRMC,092355.000,A,4338.9042,N,00103.5962,W,87.46,228.44,120809,,,A*4A
$GPGGA,092356.000,4338.8881,N,00103.6214,W,1,09,0.9,825.7,M,50.6,M,,0000*48
$GPGSA,A,3,15,28,08,10,27,17,09,21,18,,,,1.5,0.9,1.3*3A
$GPRMC,092356.000,A,4338.8881,N,00103.6214,W,88.16,228.79,120809,,,A*42
$GPGGA,092357.000,4338.8720,N,00103.6469,W,1,09,0.9,828.6,M,50.6,M,,0000*4D
$GPGSA,A,3,15,28,08,10,27,17,09,21,18,,,,1.5,0.9,1.3*3A
$GPRMC,092357.000,A,4338.8720,N,00103.6469,W,88.74,228.92,120809,,,A*4A
$GPGGA,092358.000,4338.8558,N,00103.6727,W,1,09,0.9,831.2,M,50.6,M,,0000*4A
$GPGSA,A,3,15,28,08,10,27,17,09,21,18,,,,1.5,0.9,1.3*3A
$GPRMC,092358.000,A,4338.8558,N,00103.6727,W,89.60,228.87,120809,,,A*41
$GPGGA,092359.000,4338.8394,N,00103.6986,W,1,09,0.9,833.3,M,50.6,M,,0000*4B
$GPGSA,A,3,15,28,08,10,27,17,09,21,18,,,,1.5,0.9,1.3*3A
$GPGSV,3,1,10,15,76,324,45,27,48,268,41,28,46,062,39,10,29,180,30*7D
$GPGSV,3,2,10,09,28,259,39,08,19,060,33,18,19,316,37,17,10,113,36*78
$GPGSV,3,3,10,21,06,281,41,24,04,244,34*74
$GPRMC,092359.000,A,4338.8394,N,00103.6986,W,90.56,228.81,120809,,,A*48
$GPGGA,092400.000,4338.8228,N,00103.7248,W,1,09,0.9,835.2,M,50.6,M,,0000*49
$GPGSA,A,3,15,28,08,10,27,17,09,21,18,,,,1.5,0.9,1.3*3A
$GPRMC,092400.000,A,4338.8228,N,00103.7248,W,91.29,228.74,120809,,,A*4E
$GPGGA,092401.000,4338.8061,N,00103.7512,W,1,09,0.9,837.6,M,50.6,M,,0000*49
$GPGSA,A,3,15,28,08,10,27,17,09,21,18,,,,1.5,0.9,1.3*3A
$GPRMC,092401.000,A,4338.8061,N,00103.7512,W,91.71,228.56,120809,,,A*45
